[{"country":"AD","name":"Sant Julià de Lòria","lat":"42.46372","lng":"1.49129"},{"country":"AD","name":"Pas de la Casa","lat":"42.54277","lng":"1.73361"},{"country":"AD","name":"Ordino","lat":"42.55623","lng":"1.53319"},{"country":"AD","name":"les Escaldes","lat":"42.50729","lng":"1.53414"},{"country":"AD","name":"la Massana","lat":"42.54499","lng":"1.51483"},{"country":"AD","name":"Encamp","lat":"42.53474","lng":"1.58014"},{"country":"AD","name":"Canillo","lat":"42.5676","lng":"1.59756"},{"country":"AD","name":"Arinsal","lat":"42.57205","lng":"1.48453"},{"country":"AD","name":"Andorra la Vella","lat":"42.50779","lng":"1.52109"},{"country":"AE","name":"Umm al Qaywayn","lat":"25.56473","lng":"55.55517"},{"country":"AE","name":"Ras al-Khaimah","lat":"25.78953","lng":"55.9432"},{"country":"AE","name":"Muzayri‘","lat":"23.14355","lng":"53.7881"},{"country":"AE","name":"Murbaḩ","lat":"25.27623","lng":"56.36256"},{"country":"AE","name":"Khawr Fakkān","lat":"25.33132","lng":"56.34199"},{"country":"AE","name":"Dubai","lat":"25.0657","lng":"55.17128"},{"country":"AE","name":"Dibba Al-Fujairah","lat":"25.59246","lng":"56.26176"},{"country":"AE","name":"Dibba Al-Hisn","lat":"25.61955","lng":"56.27291"},{"country":"AE","name":"Sharjah","lat":"25.33737","lng":"55.41206"},{"country":"AE","name":"Ar Ruways","lat":"24.11028","lng":"52.73056"},{"country":"AE","name":"Al Fujayrah","lat":"25.11641","lng":"56.34141"},{"country":"AE","name":"Al Ain","lat":"24.19167","lng":"55.76056"},{"country":"AE","name":"Ajman","lat":"25.41111","lng":"55.43504"},{"country":"AE","name":"Adh Dhayd","lat":"25.28812","lng":"55.88157"},{"country":"AE","name":"Abu Dhabi","lat":"24.46667","lng":"54.36667"},{"country":"AF","name":"Zorkot","lat":"33.54149","lng":"69.73446"},{"country":"AF","name":"Wulêswālī Bihsūd","lat":"34.3436","lng":"67.90567"},{"country":"AF","name":"Kuhsān","lat":"34.65389","lng":"61.19778"},{"country":"AF","name":"Lāsh","lat":"35.3782","lng":"64.77457"},{"country":"AF","name":"Tukzār","lat":"35.94831","lng":"66.42132"},{"country":"AF","name":"Mīray","lat":"33.32462","lng":"68.44068"},{"country":"AF","name":"Āq Kupruk","lat":"36.08352","lng":"66.84029"},{"country":"AF","name":"Zurmat","lat":"33.43778","lng":"69.02774"},{"country":"AF","name":"Zaybāk","lat":"36.52947","lng":"71.3441"},{"country":"AF","name":"Zīārat-e Shāh Maqşūd","lat":"31.9848","lng":"65.4736"},{"country":"AF","name":"Zindah Jān","lat":"34.34264","lng":"61.74675"},{"country":"AF","name":"Zarghūn Shahr","lat":"32.84734","lng":"68.44573"},{"country":"AF","name":"Zaṟah Sharan","lat":"33.14641","lng":"68.79213"},{"country":"AF","name":"Zaranj","lat":"30.95962","lng":"61.86037"},{"country":"AF","name":"Zamtō Kêlay","lat":"32.3726","lng":"66.17708"},{"country":"AF","name":"Yangī Qal‘ah","lat":"37.46572","lng":"69.61131"},{"country":"AF","name":"Yaḩyá Khēl","lat":"32.93742","lng":"68.64622"},{"country":"AF","name":"Wāshēr","lat":"32.25122","lng":"63.85553"},{"country":"AF","name":"Tōrmay","lat":"33.68847","lng":"68.40205"},{"country":"AF","name":"Tūlak","lat":"33.97509","lng":"63.72868"},{"country":"AF","name":"Tītān","lat":"33.69032","lng":"63.86361"},{"country":"AF","name":"Tīr Pul","lat":"34.59431","lng":"61.26895"},{"country":"AF","name":"Taywarah","lat":"33.52118","lng":"64.42116"},{"country":"AF","name":"Bāzār-e Tashkān","lat":"36.88168","lng":"70.27674"},{"country":"AF","name":"Tarinkot","lat":"32.62998","lng":"65.87806"},{"country":"AF","name":"Taloqan","lat":"36.73605","lng":"69.53451"},{"country":"AF","name":"Tagāw-Bāy","lat":"35.69941","lng":"66.06164"},{"country":"AF","name":"Tagāb","lat":"34.85501","lng":"69.64917"},{"country":"AF","name":"Markaz-e Ḩukūmat-e Sulţān-e Bakwāh","lat":"32.24139","lng":"62.94936"},{"country":"AF","name":"Spīn Bōldak","lat":"31.00575","lng":"66.40001"},{"country":"AF","name":"Spērah","lat":"33.20204","lng":"69.5152"},{"country":"AF","name":"Sōzmah Qal‘ah","lat":"36.09916","lng":"66.20823"},{"country":"AF","name":"Siyāhgird","lat":"35.00553","lng":"68.85578"},{"country":"AF","name":"Sheywah","lat":"34.57169","lng":"70.58859"},{"country":"AF","name":"Shīnḏanḏ","lat":"33.30294","lng":"62.1474"},{"country":"AF","name":"Shaykh Amīr Kêlay","lat":"33.28744","lng":"69.91283"},{"country":"AF","name":"Qāshqāl","lat":"35.03975","lng":"69.00685"},{"country":"AF","name":"Shibirghān","lat":"36.66757","lng":"65.7529"},{"country":"AF","name":"Shwāk","lat":"33.42386","lng":"69.37684"},{"country":"AF","name":"Shahr-e Şafā","lat":"31.80347","lng":"66.32376"},{"country":"AF","name":"Shahrān","lat":"36.97984","lng":"70.73928"},{"country":"AF","name":"Shahrak","lat":"34.10737","lng":"64.3052"},{"country":"AF","name":"‘Alāqahdārī Shāh Jōy","lat":"32.52154","lng":"67.41315"},{"country":"AF","name":"Wulêswālī Sayyid Karam","lat":"33.69056","lng":"69.36881"},{"country":"AF","name":"Markaz-e Sayyidābād","lat":"34.00037","lng":"68.71346"},{"country":"AF","name":"Şayād","lat":"36.13529","lng":"65.8297"},{"country":"AF","name":"Sidqābād","lat":"35.02298","lng":"69.35112"},{"country":"AF","name":"Sāyagaz","lat":"32.56521","lng":"67.03324"},{"country":"AF","name":"Sar-e Tayghān","lat":"33.50998","lng":"65.67632"},{"country":"AF","name":"Sarōbī","lat":"34.58962","lng":"69.76005"},{"country":"AF","name":"Sar Kāṉī","lat":"34.79023","lng":"71.10962"},{"country":"AF","name":"Sarfirāz Kalā","lat":"32.98333","lng":"67.96517"},{"country":"AF","name":"Sar-e Pul","lat":"36.21544","lng":"65.93249"},{"country":"AF","name":"Sar Chakān","lat":"35.70177","lng":"65.23055"},{"country":"AF","name":"Sangīn","lat":"32.07275","lng":"64.8359"},{"country":"AF","name":"Sang-e Māshah","lat":"33.1396","lng":"67.44046"},{"country":"AF","name":"Sang-e Chārak","lat":"35.84972","lng":"66.43694"},{"country":"AF","name":"Sang Atesh","lat":"35.248","lng":"63.0044"},{"country":"AF","name":"Sangar Sarāy","lat":"34.40744","lng":"70.63937"},{"country":"AF","name":"Aībak","lat":"36.26468","lng":"68.01551"},{"country":"AF","name":"Rū-ye Sang","lat":"35.31999","lng":"67.63387"},{"country":"AF","name":"Rūdbār","lat":"30.15","lng":"62.6"},{"country":"AF","name":"Rustāq","lat":"37.12604","lng":"69.83045"},{"country":"AF","name":"Rabāţ-e Sangī-ye Pā’īn","lat":"34.79951","lng":"62.13917"},{"country":"AF","name":"Rāmak","lat":"33.52234","lng":"68.6264"},{"country":"AF","name":"Qurghān","lat":"36.91939","lng":"65.0649"},{"country":"AF","name":"Quchanghī","lat":"34.06183","lng":"66.27801"},{"country":"AF","name":"Sangalak-i-Kaisar","lat":"35.68747","lng":"64.29318"},{"country":"AF","name":"Qarqīn","lat":"37.41853","lng":"66.04358"},{"country":"AF","name":"Qarghah’ī","lat":"34.55402","lng":"70.24292"},{"country":"AF","name":"Qarchī Gak","lat":"37.03999","lng":"66.78891"},{"country":"AF","name":"Qarāwul","lat":"37.21959","lng":"68.7802"},{"country":"AF","name":"Qarah Bāgh","lat":"34.94023","lng":"61.77589"},{"country":"AF","name":"Qarah Bāgh","lat":"33.19801","lng":"68.10798"},{"country":"AF","name":"Qala i Naw","lat":"34.98735","lng":"63.12891"},{"country":"AF","name":"Qal‘ah-ye Kūf","lat":"38.04119","lng":"70.47298"},{"country":"AF","name":"Qal‘ah-ye Kuhnah","lat":"32.61591","lng":"63.66681"},{"country":"AF","name":"Qal‘ah-ye Shahr","lat":"35.54729","lng":"65.5676"},{"country":"AF","name":"Qalāt","lat":"32.10575","lng":"66.90833"},{"country":"AF","name":"Qal‘ah-ye Shāhī","lat":"34.64921","lng":"70.5914"},{"country":"AF","name":"Qādis","lat":"34.8085","lng":"63.43003"},{"country":"AF","name":"Pārūn","lat":"35.42064","lng":"70.92261"},{"country":"AF","name":"Pul-e Khumrī","lat":"35.94458","lng":"68.71512"},{"country":"AF","name":"Pul-e ‘Alam","lat":"33.99529","lng":"69.02274"},{"country":"AF","name":"Pasnay","lat":"35.76664","lng":"65.76486"},{"country":"AF","name":"Pāshmūl","lat":"31.5572","lng":"65.4343"},{"country":"AF","name":"Pasāband","lat":"33.68956","lng":"64.8531"},{"country":"AF","name":"Panjāb","lat":"34.38795","lng":"67.02327"},{"country":"AF","name":"Paghmān","lat":"34.58787","lng":"68.95091"},{"country":"AF","name":"Ōmnah","lat":"32.90029","lng":"68.79627"},{"country":"AF","name":"Qaryeh-ye Owbeh","lat":"34.36972","lng":"63.17639"},{"country":"AF","name":"Uruzgān","lat":"32.92775","lng":"66.63253"},{"country":"AF","name":"Urgun","lat":"32.9515","lng":"69.1828"},{"country":"AF","name":"Nūsay","lat":"38.4435","lng":"70.80413"},{"country":"AF","name":"Nūrgal","lat":"34.61341","lng":"70.76498"},{"country":"AF","name":"Now Zād","lat":"32.40315","lng":"64.46959"},{"country":"AF","name":"Nīlī","lat":"33.72178","lng":"66.13023"},{"country":"AF","name":"Nayak","lat":"34.73414","lng":"66.95292"},{"country":"AF","name":"Nāyak","lat":"32.5723","lng":"66.77403"},{"country":"AF","name":"Now Dahānak","lat":"35.62398","lng":"70.00511"},{"country":"AF","name":"Ōkak","lat":"33.89793","lng":"67.95652"},{"country":"AF","name":"Nāṟay","lat":"35.21995","lng":"71.52284"},{"country":"AF","name":"Narang","lat":"34.76009","lng":"71.04738"},{"country":"AF","name":"Nīkêh","lat":"33.18934","lng":"69.27179"},{"country":"AF","name":"Nahrīn","lat":"36.0649","lng":"69.13343"},{"country":"AF","name":"Ḩukūmat-e Nād ‘Alī","lat":"31.64286","lng":"64.23982"},{"country":"AF","name":"Mūsá Qal‘ah","lat":"32.44565","lng":"64.74486"},{"country":"AF","name":"Bala Murghab","lat":"35.58408","lng":"63.32886"},{"country":"AF","name":"Muqêr","lat":"32.82009","lng":"67.76934"},{"country":"AF","name":"Muḩammad Āghah Wuluswālī","lat":"34.21422","lng":"69.10026"},{"country":"AF","name":"Mīzān ‘Alāqahdārī","lat":"32.17635","lng":"66.51271"},{"country":"AF","name":"Mīr Bachah Kōṯ","lat":"34.74999","lng":"69.11899"},{"country":"AF","name":"Mīrān","lat":"34.22037","lng":"68.31259"},{"country":"AF","name":"Mīrābād","lat":"30.43624","lng":"61.8383"},{"country":"AF","name":"Maymana","lat":"35.92139","lng":"64.78361"},{"country":"AF","name":"Maīdān Khūlah","lat":"33.64916","lng":"69.7812"},{"country":"AF","name":"Mingajik","lat":"37.0279","lng":"66.12817"},{"country":"AF","name":"Mehtar Lām","lat":"34.67139","lng":"70.20944"},{"country":"AF","name":"Mazār-e Sharīf","lat":"36.70904","lng":"67.11087"},{"country":"AF","name":"Māymay","lat":"38.40856","lng":"71.03839"},{"country":"AF","name":"Mutā Khān","lat":"33.24001","lng":"68.8663"},{"country":"AF","name":"Mashhad","lat":"36.81665","lng":"70.10211"},{"country":"AF","name":"Mardīān","lat":"36.99252","lng":"66.29654"},{"country":"AF","name":"Mandōl","lat":"35.28403","lng":"70.17017"},{"country":"AF","name":"Māmā Khēl","lat":"34.24494","lng":"69.9968"},{"country":"AF","name":"Lashkar Gāh","lat":"31.59382","lng":"64.37161"},{"country":"AF","name":"Lāsh-e Juwayn","lat":"31.71382","lng":"61.62272"},{"country":"AF","name":"Larkird","lat":"35.48936","lng":"66.66409"},{"country":"AF","name":"La‘l","lat":"34.50141","lng":"66.27997"},{"country":"AF","name":"Kushk","lat":"33.29565","lng":"61.95221"},{"country":"AF","name":"Kōṯowāl","lat":"34.10319","lng":"70.46073"},{"country":"AF","name":"Kushk-e Kuhnah","lat":"34.8711","lng":"62.54762"},{"country":"AF","name":"Kuran wa Munjan","lat":"36.02866","lng":"70.77258"},{"country":"AF","name":"Kunduz","lat":"36.72895","lng":"68.857"},{"country":"AF","name":"Khōshī","lat":"33.99916","lng":"69.21582"},{"country":"AF","name":"Khōshāmand","lat":"32.68567","lng":"68.23801"},{"country":"AF","name":"Khwājah Ghār","lat":"37.06588","lng":"69.42126"},{"country":"AF","name":"Khwājah Dū Kōh","lat":"36.82881","lng":"65.62432"},{"country":"AF","name":"Deh Khwāhān","lat":"37.88965","lng":"70.21875"},{"country":"AF","name":"Khulbisāt","lat":"33.4948","lng":"70.00605"},{"country":"AF","name":"Khūgyāṉī","lat":"31.56267","lng":"66.5814"},{"country":"AF","name":"Khōst","lat":"33.33951","lng":"69.92041"},{"country":"AF","name":"Khulm","lat":"36.69736","lng":"67.69826"},{"country":"AF","name":"Khudāydād Khēl","lat":"35.17835","lng":"67.68758"},{"country":"AF","name":"Khinjān","lat":"35.58908","lng":"68.90093"},{"country":"AF","name":"Khinj","lat":"35.42898","lng":"69.73482"},{"country":"AF","name":"Khāsh","lat":"31.52919","lng":"62.79055"},{"country":"AF","name":"Khān Neshīn","lat":"30.5488","lng":"63.7888"},{"country":"AF","name":"Khānaqāh","lat":"36.62587","lng":"69.53695"},{"country":"AF","name":"Chahār Bāgh","lat":"37.00108","lng":"65.22392"},{"country":"AF","name":"Khandūd","lat":"36.95127","lng":"72.318"},{"country":"AF","name":"Khānaqāh","lat":"36.86279","lng":"66.16656"},{"country":"AF","name":"Khanabad","lat":"36.6825","lng":"69.11556"},{"country":"AF","name":"Khamyāb","lat":"37.5275","lng":"65.75833"},{"country":"AF","name":"Khākirān","lat":"32.8385","lng":"67.07377"},{"country":"AF","name":"Kaz̲h̲ah","lat":"34.24088","lng":"70.18274"},{"country":"AF","name":"Kishk-e Nakhūd","lat":"31.62519","lng":"65.05511"},{"country":"AF","name":"Karukh","lat":"34.48108","lng":"62.5863"},{"country":"AF","name":"Kanḏay","lat":"34.9536","lng":"70.77897"},{"country":"AF","name":"Kandahār","lat":"31.61332","lng":"65.71013"},{"country":"AF","name":"Kalān Deh","lat":"33.83676","lng":"68.40233"},{"country":"AF","name":"Kalakān","lat":"34.78371","lng":"69.15001"},{"country":"AF","name":"Kalafgān","lat":"36.77226","lng":"69.94489"},{"country":"AF","name":"Kajrān","lat":"33.20357","lng":"65.47311"},{"country":"AF","name":"Kai","lat":"34.12819","lng":"70.71828"},{"country":"AF","name":"Kabul","lat":"34.52813","lng":"69.17233"},{"country":"AF","name":"Jurm","lat":"36.86477","lng":"70.83421"},{"country":"AF","name":"Jawand","lat":"35.06361","lng":"64.14917"},{"country":"AF","name":"Jānī Khēl","lat":"32.76315","lng":"68.39722"},{"country":"AF","name":"Jalrēz","lat":"34.4708","lng":"68.65438"},{"country":"AF","name":"Jalālābād","lat":"34.42647","lng":"70.45153"},{"country":"AF","name":"Jabal os Saraj","lat":"35.11833","lng":"69.23778"},{"country":"AF","name":"Ḩukūmat-e Shīnkaī","lat":"31.98303","lng":"67.33558"},{"country":"AF","name":"Herāt","lat":"34.34817","lng":"62.19967"},{"country":"AF","name":"Ḩājī Khēl","lat":"35.10922","lng":"69.43341"},{"country":"AF","name":"Ḩāfiz̧ Moghul","lat":"37.05643","lng":"70.40061"},{"country":"AF","name":"Khafizan","lat":"34.28665","lng":"70.37247"},{"country":"AF","name":"Guz̄arah","lat":"34.21223","lng":"62.21235"},{"country":"AF","name":"Gōshtah","lat":"34.35822","lng":"70.76264"},{"country":"AF","name":"Gōmal Kêlay","lat":"32.50989","lng":"68.85598"},{"country":"AF","name":"‘Alāqahdārī Gēlān","lat":"32.72692","lng":"67.63696"},{"country":"AF","name":"Ghōriyān","lat":"34.3448","lng":"61.49321"},{"country":"AF","name":"Ghormach","lat":"35.73062","lng":"63.78264"},{"country":"AF","name":"Ghurayd Gharamē","lat":"36.5222","lng":"70.79063"},{"country":"AF","name":"Ghazni","lat":"33.55391","lng":"68.42096"},{"country":"AF","name":"Gereshk","lat":"31.82089","lng":"64.57005"},{"country":"AF","name":"Gardez","lat":"33.59744","lng":"69.22592"},{"country":"AF","name":"Fayzabad","lat":"37.11664","lng":"70.58002"},{"country":"AF","name":"Faīẕābād","lat":"36.82091","lng":"66.45921"},{"country":"AF","name":"Fayẕābād","lat":"36.29111","lng":"64.86222"},{"country":"AF","name":"Qal‘ah-ye Fārsī","lat":"33.78529","lng":"63.24735"},{"country":"AF","name":"Farkhār","lat":"36.57288","lng":"69.85783"},{"country":"AF","name":"Farah","lat":"32.37451","lng":"62.11638"},{"country":"AF","name":"Istālif","lat":"34.83268","lng":"69.07756"},{"country":"AF","name":"Kafir Qala","lat":"34.66667","lng":"61.06667"},{"country":"AF","name":"Injīl","lat":"34.30157","lng":"62.2465"},{"country":"AF","name":"Imām Şāḩib","lat":"37.18897","lng":"68.93644"},{"country":"AF","name":"Dōshī","lat":"35.60918","lng":"68.68473"},{"country":"AF","name":"Dowlatyār","lat":"34.55132","lng":"65.79302"},{"country":"AF","name":"Dowlat Shāh","lat":"34.9504","lng":"70.07102"},{"country":"AF","name":"Dowlatābād","lat":"36.98821","lng":"66.82069"},{"country":"AF","name":"Dowlatābād","lat":"36.43259","lng":"64.92071"},{"country":"AF","name":"Dū Qal‘ah","lat":"32.14237","lng":"61.4469"},{"country":"AF","name":"Dūāb","lat":"35.56277","lng":"67.82191"},{"country":"AF","name":"Dê Nārkhēl Kêlay","lat":"32.43205","lng":"65.63484"},{"country":"AF","name":"Dehī","lat":"35.95806","lng":"67.27998"},{"country":"AF","name":"Deh-e Şalāḩ","lat":"35.69031","lng":"69.31511"},{"country":"AF","name":"Deh-e Now","lat":"34.74767","lng":"69.04784"},{"country":"AF","name":"Dehdādī","lat":"36.66319","lng":"66.99339"},{"country":"AF","name":"Dwah Manḏay","lat":"33.28159","lng":"69.58531"},{"country":"AF","name":"Dasht-e Qal‘ah","lat":"37.1539","lng":"69.4435"},{"country":"AF","name":"Dasht-e Qal‘ah","lat":"33.02978","lng":"63.8395"},{"country":"AF","name":"Dasht-e Archī","lat":"37.13333","lng":"69.16667"},{"country":"AF","name":"Darzāb","lat":"35.97744","lng":"65.37828"},{"country":"AF","name":"Markaz-e Ḩukūmat-e Darwēshān","lat":"31.13231","lng":"64.1934"},{"country":"AF","name":"Darqad","lat":"37.38414","lng":"69.45294"},{"country":"AF","name":"Darāyim","lat":"36.86667","lng":"70.38333"},{"country":"AF","name":"Dāngām","lat":"34.99249","lng":"71.41935"},{"country":"AF","name":"Ḏanḏar","lat":"34.79095","lng":"69.47504"},{"country":"AF","name":"Ḩukūmatī Dahanah-ye Ghōrī","lat":"35.90617","lng":"68.48869"},{"country":"AF","name":"Tsowkêy","lat":"34.69246","lng":"70.92688"},{"country":"AF","name":"Chīras","lat":"35.41674","lng":"65.98234"},{"country":"AF","name":"Chisht-e Sharīf","lat":"34.34731","lng":"63.73966"},{"country":"AF","name":"Chinār","lat":"32.01583","lng":"65.10721"},{"country":"AF","name":"Chimtāl","lat":"36.67818","lng":"66.80325"},{"country":"AF","name":"Charkh","lat":"33.79712","lng":"68.93749"},{"country":"AF","name":"Charikar","lat":"35.01361","lng":"69.17139"},{"country":"AF","name":"Dowr-e Rabāţ","lat":"36.69132","lng":"68.79093"},{"country":"AF","name":"Tsapêraī","lat":"33.83003","lng":"69.9192"},{"country":"AF","name":"Tsamkanī","lat":"33.80298","lng":"69.81671"},{"country":"AF","name":"Chakaray","lat":"34.34099","lng":"69.4377"},{"country":"AF","name":"Chākarān","lat":"36.91112","lng":"71.0688"},{"country":"AF","name":"Chahār Qal‘ah","lat":"33.55267","lng":"68.29828"},{"country":"AF","name":"Chahār Burj","lat":"34.24475","lng":"62.19165"},{"country":"AF","name":"Chāh Āb","lat":"37.39773","lng":"69.81464"},{"country":"AF","name":"Fayrōz Kōh","lat":"34.51952","lng":"65.25093"},{"country":"AF","name":"Bulōlah","lat":"34.87706","lng":"68.0879"},{"country":"AF","name":"Bal Chirāgh","lat":"35.84026","lng":"65.2309"},{"country":"AF","name":"Bāzār-e Tālah","lat":"35.39205","lng":"68.22317"},{"country":"AF","name":"Bāsawul","lat":"34.24749","lng":"70.87218"},{"country":"AF","name":"Būrkah","lat":"36.22242","lng":"69.15037"},{"country":"AF","name":"Barg-e Matāl","lat":"35.67283","lng":"71.34339"},{"country":"AF","name":"Baraki Barak","lat":"33.96744","lng":"68.9492"},{"country":"AF","name":"Banū","lat":"35.63348","lng":"69.26019"},{"country":"AF","name":"Bāmyān","lat":"34.82156","lng":"67.82734"},{"country":"AF","name":"Balkh","lat":"36.75635","lng":"66.8972"},{"country":"AF","name":"Bahārak","lat":"37.00254","lng":"70.90664"},{"country":"AF","name":"Bagrāmī","lat":"34.49376","lng":"69.27427"},{"country":"AF","name":"Baghlān","lat":"36.13068","lng":"68.70829"},{"country":"AF","name":"Ḩukūmatī Azrah","lat":"34.17355","lng":"69.64573"},{"country":"AF","name":"Ārt Khwājah","lat":"37.08571","lng":"69.47958"},{"country":"AF","name":"‘Alāqahdārī Aṯghar","lat":"31.73506","lng":"67.3574"},{"country":"AF","name":"Āsmār","lat":"35.03333","lng":"71.35809"},{"country":"AF","name":"Ashkāsham","lat":"36.68333","lng":"71.53333"},{"country":"AF","name":"Asadābād","lat":"34.87311","lng":"71.14697"},{"country":"AF","name":"Āqchah","lat":"36.905","lng":"66.18341"},{"country":"AF","name":"Andkhōy","lat":"36.95293","lng":"65.12376"},{"country":"AF","name":"’Unābah","lat":"35.23251","lng":"69.37719"},{"country":"AF","name":"Anār Darah","lat":"32.7587","lng":"61.65397"},{"country":"AF","name":"Amānzī","lat":"30.21144","lng":"66.04765"},{"country":"AF","name":"‘Alāqahdārī-ye Almār","lat":"35.84616","lng":"64.53074"},{"country":"AF","name":"‘Alī Shēr ‘Alāqahdārī","lat":"33.4362","lng":"70.06711"},{"country":"AF","name":"Wuluswālī ‘Alīngār","lat":"34.83529","lng":"70.3593"},{"country":"AF","name":"‘Alī Khēl","lat":"33.94253","lng":"69.71908"},{"country":"AF","name":"‘Alāqahdārī Yōsuf Khēl","lat":"33.05195","lng":"68.65"},{"country":"AF","name":"‘Alāqahdārī Dīshū","lat":"30.43206","lng":"63.29802"},{"country":"AF","name":"Alah Sāy","lat":"34.8965","lng":"69.72049"},{"country":"AF","name":"Pachīr wa Āgām","lat":"34.20011","lng":"70.27806"},{"country":"AF","name":"Afaki","lat":"36.66172","lng":"69.35095"},{"country":"AF","name":"Adraskan","lat":"33.64573","lng":"62.26959"},{"country":"AF","name":"Āb-e Kamarī","lat":"35.08796","lng":"63.0678"},{"country":"AF","name":"Khadīr","lat":"33.92232","lng":"65.93398"},{"country":"AF","name":"Ghulām ‘Alī","lat":"34.95076","lng":"69.2287"},{"country":"AF","name":"Qarah Bāgh Bāzār","lat":"34.8529","lng":"69.17062"},{"country":"AF","name":"Zargarān","lat":"34.78764","lng":"69.05878"},{"country":"AF","name":"Surkh Bilandī","lat":"34.68474","lng":"69.02863"},{"country":"AF","name":"Pul-e Sangī","lat":"34.59972","lng":"69.25993"},{"country":"AF","name":"Langar","lat":"35.99474","lng":"68.05081"},{"country":"AF","name":"Bāgh-e Maīdān","lat":"35.22156","lng":"69.21397"},{"country":"AF","name":"Ibrāhīm Khān","lat":"35.05352","lng":"69.25654"},{"country":"AF","name":"Qaranghū Tōghaī","lat":"37.21528","lng":"67.63972"},{"country":"AF","name":"Bāzārak","lat":"35.31292","lng":"69.51519"},{"country":"AF","name":"Shērwānī-ye Bālā","lat":"35.01468","lng":"69.59934"},{"country":"AF","name":"Kirāmān","lat":"35.2973","lng":"69.68125"},{"country":"AF","name":"‘Alāqahdārī Saṟōbī","lat":"32.79331","lng":"69.0866"},{"country":"AF","name":"Zerok-Alakadari","lat":"33.15806","lng":"69.31278"},{"country":"AF","name":"Kushkak","lat":"32.28991","lng":"61.52194"},{"country":"AF","name":"Khayr Kōṯ","lat":"32.85355","lng":"68.44971"},{"country":"AF","name":"Chowṉêy","lat":"33.38278","lng":"66.27233"},{"country":"AF","name":"Wuṯahpūr","lat":"34.91914","lng":"71.09863"},{"country":"AF","name":"Karbori","lat":"34.96597","lng":"71.2746"},{"country":"AF","name":"Sulţānpūr-e ‘Ulyā","lat":"34.41204","lng":"70.29634"},{"country":"AF","name":"Babasakhib","lat":"31.66144","lng":"65.66098"},{"country":"AF","name":"Chandal Bā’ī","lat":"34.58469","lng":"68.95524"},{"country":"AF","name":"Dahan-e Jarf","lat":"34.92891","lng":"68.46273"},{"country":"AF","name":"Maydanshakhr","lat":"34.39561","lng":"68.86618"},{"country":"AF","name":"Dū Laīnah","lat":"34.15599","lng":"64.78566"},{"country":"AF","name":"Qaram Qōl","lat":"36.83006","lng":"65.04299"},{"country":"AF","name":"Pul-e Ḩişār","lat":"35.61794","lng":"69.47134"},{"country":"AF","name":"Lab-Sar","lat":"36.02634","lng":"66.83799"},{"country":"AF","name":"Ţāqchah Khānah","lat":"36.61922","lng":"69.62805"},{"country":"AF","name":"March","lat":"37.52845","lng":"70.4482"},{"country":"AF","name":"Zīrakī","lat":"37.59233","lng":"70.55814"},{"country":"AF","name":"Aliabad","lat":"36.52115","lng":"68.89985"},{"country":"AF","name":"Pas Pul","lat":"37.47355","lng":"70.61617"},{"country":"AF","name":"Qal‘ah-ye Na‘īm","lat":"34.39951","lng":"69.16705"},{"country":"AF","name":"Markaz-e Woluswalī-ye Āchīn","lat":"34.12583","lng":"70.70778"},{"country":"AF","name":"Manogay","lat":"34.99015","lng":"70.91302"},{"country":"AF","name":"Stêr Giyān","lat":"32.97704","lng":"69.37308"},{"country":"AF","name":"Sharan","lat":"33.17568","lng":"68.73045"},{"country":"AF","name":"Salām Khēl","lat":"33.67067","lng":"69.32983"},{"country":"AG","name":"Saint John’s","lat":"17.12096","lng":"-61.84329"},{"country":"AG","name":"Potters Village","lat":"17.11337","lng":"-61.81962"},{"country":"AG","name":"Piggotts","lat":"17.11667","lng":"-61.8"},{"country":"AG","name":"Parham","lat":"17.09682","lng":"-61.77046"},{"country":"AG","name":"Liberta","lat":"17.04141","lng":"-61.79052"},{"country":"AG","name":"Falmouth","lat":"17.02741","lng":"-61.78136"},{"country":"AG","name":"Codrington","lat":"17.63333","lng":"-61.83333"},{"country":"AG","name":"Bolands","lat":"17.06565","lng":"-61.87466"},{"country":"AG","name":"All Saints","lat":"17.06671","lng":"-61.79303"},{"country":"AI","name":"West End Village","lat":"18.17191","lng":"-63.14941"},{"country":"AI","name":"The Valley","lat":"18.21704","lng":"-63.05783"},{"country":"AI","name":"The Quarter","lat":"18.20799","lng":"-63.04178"},{"country":"AI","name":"Farrington","lat":"18.215","lng":"-63.02238"},{"country":"AI","name":"Stoney Ground","lat":"18.22026","lng":"-63.04607"},{"country":"AI","name":"South Hill Village","lat":"18.19201","lng":"-63.08779"},{"country":"AI","name":"Sandy Ground Village","lat":"18.20118","lng":"-63.08998"},{"country":"AI","name":"North Side","lat":"18.22919","lng":"-63.04401"},{"country":"AI","name":"North Hill Village","lat":"18.20542","lng":"-63.07847"},{"country":"AI","name":"Island Harbour","lat":"18.25601","lng":"-63.0102"},{"country":"AI","name":"George Hill","lat":"18.19939","lng":"-63.0665"},{"country":"AI","name":"East End Village","lat":"18.23333","lng":"-63"},{"country":"AI","name":"Blowing Point Village","lat":"18.17648","lng":"-63.09375"},{"country":"AI","name":"Sandy Hill","lat":"18.22104","lng":"-63.01329"},{"country":"AL","name":"Xarrë","lat":"39.72833","lng":"20.05444"},{"country":"AL","name":"Sarandë","lat":"39.87534","lng":"20.00477"},{"country":"AL","name":"Mesopotam","lat":"39.91028","lng":"20.09222"},{"country":"AL","name":"Markat","lat":"39.73278","lng":"20.19528"},{"country":"AL","name":"Livadhja","lat":"39.78917","lng":"20.12194"},{"country":"AL","name":"Konispol","lat":"39.65889","lng":"20.18139"},{"country":"AL","name":"Kakavijë","lat":"39.90778","lng":"20.35833"},{"country":"AL","name":"Finiq","lat":"39.90639","lng":"20.05833"},{"country":"AL","name":"Dhivër","lat":"39.83611","lng":"20.16861"},{"country":"AL","name":"Delvinë","lat":"39.95111","lng":"20.09778"},{"country":"AL","name":"Aliko","lat":"39.85861","lng":"20.07917"},{"country":"AL","name":"Buçimas","lat":"40.89139","lng":"20.68139"},{"country":"AL","name":"Zhepë","lat":"40.67778","lng":"20.28694"},{"country":"AL","name":"Zerqan","lat":"41.50222","lng":"20.36056"},{"country":"AL","name":"Zavalinë","lat":"40.98083","lng":"20.28083"},{"country":"AL","name":"Zapod","lat":"42.05056","lng":"20.5525"},{"country":"AL","name":"Zall-Reç","lat":"41.87611","lng":"20.32"},{"country":"AL","name":"Zall-Dardhë","lat":"41.80667","lng":"20.33611"},{"country":"AL","name":"Xibër-Murrizë","lat":"41.45472","lng":"20.02556"},{"country":"AL","name":"Vreshtas","lat":"40.79694","lng":"20.77694"},{"country":"AL","name":"Voskopojë","lat":"40.63306","lng":"20.58889"},{"country":"AL","name":"Voskop","lat":"40.61194","lng":"20.69028"},{"country":"AL","name":"Vithkuq","lat":"40.525","lng":"20.5825"},{"country":"AL","name":"Vithkuq","lat":"40.20472","lng":"20.25944"},{"country":"AL","name":"Vërtop","lat":"40.62889","lng":"20.05389"},{"country":"AL","name":"Vergo","lat":"40.00667","lng":"20.00889"},{"country":"AL","name":"Vendresha e Vogël","lat":"40.50722","lng":"20.13472"},{"country":"AL","name":"Velçan","lat":"40.95472","lng":"20.46222"},{"country":"AL","name":"Ujmisht","lat":"41.90833","lng":"20.34694"},{"country":"AL","name":"Udënisht","lat":"40.96333","lng":"20.63917"},{"country":"AL","name":"Tunjë","lat":"40.83417","lng":"20.11194"},{"country":"AL","name":"Tregan","lat":"41.02472","lng":"20.07833"},{"country":"AL","name":"Trebisht-Muçinë","lat":"41.41111","lng":"20.53556"},{"country":"AL","name":"Trebinjë","lat":"40.91333","lng":"20.55306"},{"country":"AL","name":"Topojan","lat":"40.37722","lng":"20.21333"},{"country":"AL","name":"Tomin","lat":"41.69083","lng":"20.42167"},{"country":"AL","name":"Tepelenë","lat":"40.29583","lng":"20.01917"},{"country":"AL","name":"Surroj","lat":"41.99222","lng":"20.34417"},{"country":"AL","name":"Sult","lat":"40.88472","lng":"20.09944"},{"country":"AL","name":"Sukë","lat":"40.37528","lng":"20.15472"},{"country":"AL","name":"Suç","lat":"41.57694","lng":"20.05139"},{"country":"AL","name":"Stravaj","lat":"41.00528","lng":"20.42306"},{"country":"AL","name":"Steblevë","lat":"41.33722","lng":"20.47"},{"country":"AL","name":"Sllovë","lat":"41.80111","lng":"20.40833"},{"country":"AL","name":"Skore","lat":"40.10722","lng":"20.36639"},{"country":"AL","name":"Skënderbegas","lat":"40.77611","lng":"20.24056"},{"country":"AL","name":"Shushicë","lat":"41.0975","lng":"20.14833"},{"country":"AL","name":"Shupenzë","lat":"41.53","lng":"20.42361"},{"country":"AL","name":"Shtiqën","lat":"42.04056","lng":"20.43417"},{"country":"AL","name":"Shishtavec","lat":"41.98","lng":"20.60583"},{"country":"AL","name":"Shirgjan","lat":"41.05194","lng":"20.05333"},{"country":"AL","name":"Shëngjin","lat":"41.92611","lng":"20.18833"},{"country":"AL","name":"Shënmëri","lat":"42.10417","lng":"20.23833"},{"country":"AL","name":"Selishtë","lat":"41.6275","lng":"20.27917"},{"country":"AL","name":"Saraqinishtë","lat":"40.10528","lng":"20.22944"},{"country":"AL","name":"Rukaj","lat":"41.68361","lng":"20.01917"},{"country":"AL","name":"Rajcë","lat":"41.09028","lng":"20.57639"},{"country":"AL","name":"Roshnik","lat":"40.73278","lng":"20.03944"},{"country":"AL","name":"Qukës-Skënderbe","lat":"41.08389","lng":"20.43806"},{"country":"AL","name":"Qestorat","lat":"40.1175","lng":"20.19972"},{"country":"AL","name":"Qafëmal","lat":"42.09333","lng":"20.09056"},{"country":"AL","name":"Përrenjas-Fshat","lat":"41.06667","lng":"20.53528"},{"country":"AL","name":"Përrenjas","lat":"41.07306","lng":"20.54889"},{"country":"AL","name":"Proptisht","lat":"40.98611","lng":"20.5025"},{"country":"AL","name":"Progër","lat":"40.69417","lng":"20.94028"},{"country":"AL","name":"Potom","lat":"40.48833","lng":"20.37333"},{"country":"AL","name":"Poroçan","lat":"40.94194","lng":"20.29861"},{"country":"AL","name":"Polis-Gostimë","lat":"41.13333","lng":"20.25833"},{"country":"AL","name":"Poliçan","lat":"40.61222","lng":"20.09806"},{"country":"AL","name":"Pojan","lat":"40.72583","lng":"20.8375"},{"country":"AL","name":"Pogradec","lat":"40.9025","lng":"20.6525"},{"country":"AL","name":"Pishaj","lat":"40.88111","lng":"20.18278"},{"country":"AL","name":"Pirg","lat":"40.785","lng":"20.70611"},{"country":"AL","name":"Gjinkar","lat":"40.19944","lng":"20.40611"},{"country":"AL","name":"Petran","lat":"40.20944","lng":"20.41833"},{"country":"AL","name":"Peshkopi","lat":"41.685","lng":"20.42889"},{"country":"AL","name":"Përmet","lat":"40.23361","lng":"20.35167"},{"country":"AL","name":"Ostreni i Math","lat":"41.43083","lng":"20.45556"},{"country":"AL","name":"Orosh","lat":"41.83333","lng":"20.08333"},{"country":"AL","name":"Orenjë","lat":"41.28472","lng":"20.21194"},{"country":"AL","name":"Odrie","lat":"40.13333","lng":"20.16667"},{"country":"AL","name":"Novoselë","lat":"40.76139","lng":"20.69833"},{"country":"AL","name":"Picar","lat":"40.16667","lng":"20.04833"},{"country":"AL","name":"Mollas","lat":"40.92694","lng":"20.00361"},{"country":"AL","name":"Mollas","lat":"40.42556","lng":"20.67444"},{"country":"AL","name":"Mollaj","lat":"40.56028","lng":"20.74028"},{"country":"AL","name":"Miras","lat":"40.50917","lng":"20.92833"},{"country":"AL","name":"Melan","lat":"41.65417","lng":"20.46528"},{"country":"AL","name":"Martanesh","lat":"41.4","lng":"20.2"},{"country":"AL","name":"Maqellarë","lat":"41.58889","lng":"20.48306"},{"country":"AL","name":"Maliq","lat":"40.70583","lng":"20.69972"},{"country":"AL","name":"Macukull","lat":"41.68861","lng":"20.11028"},{"country":"AL","name":"Lunik","lat":"41.28917","lng":"20.32361"},{"country":"AL","name":"Llugaj","lat":"42.34139","lng":"20.10861"},{"country":"AL","name":"Lis","lat":"41.6275","lng":"20.08528"},{"country":"AL","name":"Liqenas","lat":"40.78667","lng":"20.90222"},{"country":"AL","name":"Librazhd","lat":"41.17944","lng":"20.315"},{"country":"AL","name":"Libonik","lat":"40.70444","lng":"20.70861"},{"country":"AL","name":"Libohovë","lat":"40.03111","lng":"20.26306"},{"country":"AL","name":"Leskovik","lat":"40.15139","lng":"20.59722"},{"country":"AL","name":"Leshnjë","lat":"40.53694","lng":"20.31333"},{"country":"AL","name":"Lenias","lat":"40.76667","lng":"20.39139"},{"country":"AL","name":"Lekas","lat":"40.60222","lng":"20.5125"},{"country":"AL","name":"Lazarat","lat":"40.04667","lng":"20.1475"},{"country":"AL","name":"Labinot-Mal","lat":"41.20083","lng":"20.15222"},{"country":"AL","name":"Labinot-Fushë","lat":"41.14056","lng":"20.14611"},{"country":"AL","name":"Kushovë","lat":"40.78889","lng":"20.18889"},{"country":"AL","name":"Kurbnesh","lat":"41.77972","lng":"20.08361"},{"country":"AL","name":"Kukur","lat":"40.86778","lng":"20.36361"},{"country":"AL","name":"Kukës","lat":"42.07694","lng":"20.42194"},{"country":"AL","name":"Kthella e Epërme","lat":"41.81194","lng":"20.05889"},{"country":"AL","name":"Krumë","lat":"42.19694","lng":"20.41333"},{"country":"AL","name":"Korçë","lat":"40.61861","lng":"20.78083"},{"country":"AL","name":"Kolsh","lat":"42.07806","lng":"20.34194"},{"country":"AL","name":"Kodovjat","lat":"40.80556","lng":"20.25111"},{"country":"AL","name":"Klos","lat":"41.50694","lng":"20.08667"},{"country":"AL","name":"Klos","lat":"40.94611","lng":"20.00972"},{"country":"AL","name":"Këlcyrë","lat":"40.31306","lng":"20.18944"},{"country":"AL","name":"Kastriot","lat":"41.72944","lng":"20.37722"},{"country":"AL","name":"Kardhiq","lat":"40.12167","lng":"20.0275"},{"country":"AL","name":"Kalis","lat":"41.83889","lng":"20.36667"},{"country":"AL","name":"Iballë","lat":"42.1875","lng":"20.0025"},{"country":"AL","name":"Hotolisht","lat":"41.15667","lng":"20.39722"},{"country":"AL","name":"Hoçisht","lat":"40.60833","lng":"20.91417"},{"country":"AL","name":"Gramsh","lat":"40.86972","lng":"20.18444"},{"country":"AL","name":"Gostimë","lat":"41.14556","lng":"20.24"},{"country":"AL","name":"Golaj","lat":"42.2475","lng":"20.38028"},{"country":"AL","name":"Gjorica e Sipërme","lat":"41.53444","lng":"20.45"},{"country":"AL","name":"Gjirokastër","lat":"40.07583","lng":"20.13889"},{"country":"AL","name":"Gjinar","lat":"41.0225","lng":"20.18889"},{"country":"AL","name":"Gjinaj","lat":"42.11806","lng":"20.43583"},{"country":"AL","name":"Gjergjan","lat":"41.04306","lng":"20.02972"},{"country":"AL","name":"Gjegjan","lat":"41.93778","lng":"20.01111"},{"country":"AL","name":"Fushë-Muhurr","lat":"41.67972","lng":"20.33139"},{"country":"AL","name":"Fushë-Lurë","lat":"41.80611","lng":"20.23194"},{"country":"AL","name":"Fushë-Çidhnë","lat":"41.76056","lng":"20.34111"},{"country":"AL","name":"Fushë-Bulqizë","lat":"41.52194","lng":"20.28222"},{"country":"AL","name":"Fushë-Arrëz","lat":"42.06222","lng":"20.01667"},{"country":"AL","name":"Frashër","lat":"40.36889","lng":"20.42444"},{"country":"AL","name":"Fierzë","lat":"42.26056","lng":"20.01694"},{"country":"AL","name":"Fajzë","lat":"42.16694","lng":"20.35083"},{"country":"AL","name":"Ersekë","lat":"40.33778","lng":"20.67889"},{"country":"AL","name":"Elbasan","lat":"41.1125","lng":"20.08222"},{"country":"AL","name":"Drenovë","lat":"40.58333","lng":"20.79222"},{"country":"AL","name":"Dishnicë","lat":"40.65139","lng":"20.81361"},{"country":"AL","name":"Derjan","lat":"41.67361","lng":"20.05833"},{"country":"AL","name":"Gjerbës","lat":"40.62917","lng":"20.25111"},{"country":"AL","name":"Çorovodë","lat":"40.50417","lng":"20.22722"},{"country":"AL","name":"Çlirim","lat":"40.4175","lng":"20.55028"},{"country":"AL","name":"Cerava","lat":"40.85139","lng":"20.725"},{"country":"AL","name":"Çepan","lat":"40.42056","lng":"20.26056"},{"country":"AL","name":"Çarshovë","lat":"40.11806","lng":"20.54083"},{"country":"AL","name":"Kokaj","lat":"41.87833","lng":"20.50472"},{"country":"AL","name":"Buz","lat":"40.445","lng":"20.00472"},{"country":"AL","name":"Bushtricë","lat":"41.87861","lng":"20.42194"},{"country":"AL","name":"Burrel","lat":"41.61028","lng":"20.00889"},{"country":"AL","name":"Bulqizë","lat":"41.49167","lng":"20.22194"},{"country":"AL","name":"Bujan","lat":"42.32639","lng":"20.07639"},{"country":"AL","name":"Bradashesh","lat":"41.105","lng":"20.0225"},{"country":"AL","name":"Blinisht","lat":"41.86139","lng":"20"},{"country":"AL","name":"Blerim","lat":"42.16056","lng":"20.19194"},{"country":"AL","name":"Bilisht","lat":"40.6275","lng":"20.99"},{"country":"AL","name":"Bicaj","lat":"41.99472","lng":"20.4125"},{"country":"AL","name":"Dardhas","lat":"40.84583","lng":"20.65722"},{"country":"AL","name":"Barmash","lat":"40.27778","lng":"20.61833"},{"country":"AL","name":"Ballaban","lat":"40.41667","lng":"20.13444"},{"country":"AL","name":"Arrën","lat":"41.91306","lng":"20.28833"},{"country":"AL","name":"Arras","lat":"41.73583","lng":"20.32417"},{"country":"AL","name":"Bytyç","lat":"42.31","lng":"20.20278"},{"country":"AL","name":"Librazhd-Qendër","lat":"41.19694","lng":"20.33556"},{"country":"AL","name":"Funarë","lat":"41.19639","lng":"20.05972"},{"country":"AL","name":"Moglicë","lat":"40.71806","lng":"20.43806"},{"country":"AL","name":"Bogovë","lat":"40.57111","lng":"20.15"},{"country":"AL","name":"Piskovë","lat":"40.27917","lng":"20.2725"},{"country":"AL","name":"Lukovë","lat":"39.99222","lng":"19.91389"},{"country":"AL","name":"Ksamil","lat":"39.76889","lng":"19.99972"},{"country":"AL","name":"Zharrëz","lat":"40.70917","lng":"19.64972"},{"country":"AL","name":"Zejmen","lat":"41.70778","lng":"19.68917"},{"country":"AL","name":"Zall-Herr","lat":"41.38944","lng":"19.8275"},{"country":"AL","name":"Zall-Bastar","lat":"41.42972","lng":"19.93028"},{"country":"AL","name":"Xhafzotaj","lat":"41.34444","lng":"19.5475"},{"country":"AL","name":"Vukatanë","lat":"42.02806","lng":"19.54778"},{"country":"AL","name":"Vranisht","lat":"40.20972","lng":"19.69083"},{"country":"AL","name":"Vorë","lat":"41.39083","lng":"19.655"},{"country":"AL","name":"Vlorë","lat":"40.46667","lng":"19.48972"},{"country":"AL","name":"Velipojë","lat":"41.87833","lng":"19.40556"},{"country":"AL","name":"Velabisht","lat":"40.70167","lng":"19.93222"},{"country":"AL","name":"Vaqarr","lat":"41.29917","lng":"19.74417"},{"country":"AL","name":"Ura Vajgurore","lat":"40.76889","lng":"19.87778"},{"country":"AL","name":"Ungrej","lat":"41.87528","lng":"19.79472"},{"country":"AL","name":"Ulëz","lat":"41.68278","lng":"19.89333"},{"country":"AL","name":"Topojë","lat":"40.76306","lng":"19.43278"},{"country":"AL","name":"Tirana","lat":"41.3275","lng":"19.81889"},{"country":"AL","name":"Thumanë","lat":"41.5475","lng":"19.67778"},{"country":"AL","name":"Tërbuf","lat":"41.04","lng":"19.61417"},{"country":"AL","name":"Synej","lat":"41.18","lng":"19.5425"},{"country":"AL","name":"Sukth","lat":"41.38056","lng":"19.53778"},{"country":"AL","name":"Strum","lat":"40.75111","lng":"19.7375"},{"country":"AL","name":"Sinjë","lat":"40.64806","lng":"19.86806"},{"country":"AL","name":"Sinaballaj","lat":"41.06889","lng":"19.69944"},{"country":"AL","name":"Shkodër","lat":"42.06828","lng":"19.51258"},{"country":"AL","name":"Shijak","lat":"41.34556","lng":"19.56722"},{"country":"AL","name":"Shezë","lat":"41.02417","lng":"19.81611"},{"country":"AL","name":"Shënkoll","lat":"41.69083","lng":"19.65333"},{"country":"AL","name":"Shëngjin","lat":"41.81361","lng":"19.59389"},{"country":"AL","name":"Shëngjergj","lat":"41.18333","lng":"19.53333"},{"country":"AL","name":"Shalës","lat":"40.99861","lng":"19.94778"},{"country":"AL","name":"Nicaj-Shalë","lat":"42.29944","lng":"19.805"},{"country":"AL","name":"Sevaster","lat":"40.39639","lng":"19.72972"},{"country":"AL","name":"Selitë","lat":"41.63528","lng":"19.755"},{"country":"AL","name":"Valbonë","lat":"42.45139","lng":"19.89167"},{"country":"AL","name":"Selenicë","lat":"40.53056","lng":"19.63583"},{"country":"AL","name":"Ruzhdie","lat":"40.67083","lng":"19.69833"},{"country":"AL","name":"Rubik","lat":"41.77444","lng":"19.78611"},{"country":"AL","name":"Rrogozhinë","lat":"41.07639","lng":"19.66528"},{"country":"AL","name":"Rrëshen","lat":"41.7675","lng":"19.87556"},{"country":"AL","name":"Rrashbull","lat":"41.32278","lng":"19.51028"},{"country":"AL","name":"Rrasa e Sipërme","lat":"40.96778","lng":"19.82111"},{"country":"AL","name":"Rrapë","lat":"42.04444","lng":"19.97056"},{"country":"AL","name":"Roskovec","lat":"40.7375","lng":"19.70222"},{"country":"AL","name":"Remas","lat":"40.88639","lng":"19.51139"},{"country":"AL","name":"Qerret","lat":"42.05306","lng":"19.83722"},{"country":"AL","name":"Qelëz","lat":"42.08972","lng":"19.895"},{"country":"AL","name":"Pukë","lat":"42.04444","lng":"19.89972"},{"country":"AL","name":"Progonat","lat":"40.21333","lng":"19.94472"},{"country":"AL","name":"Prezë","lat":"41.42722","lng":"19.67278"},{"country":"AL","name":"Poshnje","lat":"40.78028","lng":"19.84417"},{"country":"AL","name":"Portëz","lat":"40.69917","lng":"19.57444"},{"country":"AL","name":"Peza e Madhe","lat":"41.2175","lng":"19.69611"},{"country":"AL","name":"Petrelë","lat":"41.25306","lng":"19.85306"},{"country":"AL","name":"Përparim","lat":"41.05","lng":"19.79917"},{"country":"AL","name":"Perondi","lat":"40.77889","lng":"19.92306"},{"country":"AL","name":"Peqin","lat":"41.04611","lng":"19.75111"},{"country":"AL","name":"Patos Fshat","lat":"40.64278","lng":"19.65083"},{"country":"AL","name":"Patos","lat":"40.68333","lng":"19.61944"},{"country":"AL","name":"Paskuqan","lat":"41.35389","lng":"19.80667"},{"country":"AL","name":"Papër","lat":"41.05167","lng":"19.96083"},{"country":"AL","name":"Pajovë","lat":"41.05472","lng":"19.8375"},{"country":"AL","name":"Otllak","lat":"40.74389","lng":"19.93528"},{"country":"AL","name":"Orikum","lat":"40.32528","lng":"19.47139"},{"country":"AL","name":"Novoselë","lat":"40.625","lng":"19.46694"},{"country":"AL","name":"Nikël","lat":"41.44417","lng":"19.74833"},{"country":"AL","name":"Nicaj-Shosh","lat":"42.24444","lng":"19.75806"},{"country":"AL","name":"Ngraçan","lat":"40.64444","lng":"19.7925"},{"country":"AL","name":"Ndroq","lat":"41.26389","lng":"19.65583"},{"country":"AL","name":"Milot","lat":"41.68389","lng":"19.71556"},{"country":"AL","name":"Memaliaj","lat":"40.35167","lng":"19.98028"},{"country":"AL","name":"Mbrostar-Urë","lat":"40.75361","lng":"19.57944"},{"country":"AL","name":"Manzë","lat":"41.42861","lng":"19.59306"},{"country":"AL","name":"Mamurras","lat":"41.5775","lng":"19.69222"},{"country":"AL","name":"Maminas","lat":"41.37917","lng":"19.6075"},{"country":"AL","name":"Luzi i Vogël","lat":"41.1275","lng":"19.57389"},{"country":"AL","name":"Lushnjë","lat":"40.94194","lng":"19.705"},{"country":"AL","name":"Luftinjë","lat":"40.44278","lng":"19.95444"},{"country":"AL","name":"Libofshë","lat":"40.83444","lng":"19.55222"},{"country":"AL","name":"Lezhë","lat":"41.78361","lng":"19.64361"},{"country":"AL","name":"Levan","lat":"40.67611","lng":"19.48972"},{"country":"AL","name":"Lekbibaj","lat":"42.29472","lng":"19.93167"},{"country":"AL","name":"Lekaj","lat":"41.11444","lng":"19.60972"},{"country":"AL","name":"Laç","lat":"41.63556","lng":"19.71306"},{"country":"AL","name":"Kutë","lat":"40.47333","lng":"19.76639"},{"country":"AL","name":"Kutalli","lat":"40.78389","lng":"19.78667"},{"country":"AL","name":"Kurjan","lat":"40.7175","lng":"19.74556"},{"country":"AL","name":"Kuman","lat":"40.72667","lng":"19.68667"},{"country":"AL","name":"Kuçovë","lat":"40.80028","lng":"19.91667"},{"country":"AL","name":"Kuç","lat":"42.03972","lng":"19.52528"},{"country":"AL","name":"Kryevidh","lat":"41.10056","lng":"19.5275"},{"country":"AL","name":"Krutja e Poshtme","lat":"40.87194","lng":"19.68083"},{"country":"AL","name":"Krujë","lat":"41.50917","lng":"19.79278"},{"country":"AL","name":"Krrabë","lat":"41.21556","lng":"19.97139"},{"country":"AL","name":"Krahës","lat":"40.43861","lng":"19.84444"},{"country":"AL","name":"Kozarë","lat":"40.83083","lng":"19.90056"},{"country":"AL","name":"Kotë","lat":"40.38944","lng":"19.60222"},{"country":"AL","name":"Koplik","lat":"42.21361","lng":"19.43639"},{"country":"AL","name":"Kombësi","lat":"41.58167","lng":"19.98556"},{"country":"AL","name":"Kolonjë","lat":"40.82417","lng":"19.60389"},{"country":"AL","name":"Kolç","lat":"41.78667","lng":"19.67611"},{"country":"AL","name":"Kavajë","lat":"41.18556","lng":"19.55694"},{"country":"AL","name":"Katundi i Ri","lat":"41.40306","lng":"19.51806"},{"country":"AL","name":"Kastrat","lat":"42.3525","lng":"19.48917"},{"country":"AL","name":"Kashar","lat":"41.34972","lng":"19.71028"},{"country":"AL","name":"Karinë","lat":"41.06306","lng":"19.71611"},{"country":"AL","name":"Karbunara e Vogël","lat":"40.92194","lng":"19.71778"},{"country":"AL","name":"Kamëz","lat":"41.38167","lng":"19.76028"},{"country":"AL","name":"Kallmeti i Madh","lat":"41.84889","lng":"19.68694"},{"country":"AL","name":"Kallmet","lat":"41.41806","lng":"19.82139"},{"country":"AL","name":"Kalenjë","lat":"40.59","lng":"19.77833"},{"country":"AL","name":"Kajan","lat":"40.91417","lng":"19.88944"},{"country":"AL","name":"Kaçinar","lat":"41.89333","lng":"19.89861"},{"country":"AL","name":"Ishëm","lat":"41.54528","lng":"19.6"},{"country":"AL","name":"Hysgjokaj","lat":"40.97167","lng":"19.78972"},{"country":"AL","name":"Hot","lat":"42.36194","lng":"19.44417"},{"country":"AL","name":"Himarë","lat":"40.10167","lng":"19.74472"},{"country":"AL","name":"Helmas","lat":"41.18028","lng":"19.60694"},{"country":"AL","name":"Hekal","lat":"40.56194","lng":"19.73583"},{"country":"AL","name":"Hasan","lat":"41.48278","lng":"19.69972"},{"country":"AL","name":"Hajmel","lat":"41.95306","lng":"19.63778"},{"country":"AL","name":"Gurra e Vogël","lat":"41.53611","lng":"19.99083"},{"country":"AL","name":"Guri i Zi","lat":"42.045","lng":"19.57472"},{"country":"AL","name":"Gruemirë","lat":"42.15917","lng":"19.51889"},{"country":"AL","name":"Greshicë","lat":"40.55194","lng":"19.77833"},{"country":"AL","name":"Grekan","lat":"40.92944","lng":"19.9475"},{"country":"AL","name":"Gradishtë","lat":"40.88806","lng":"19.58583"},{"country":"AL","name":"Gracen","lat":"41.15194","lng":"19.96361"},{"country":"AL","name":"Grabjan","lat":"40.95306","lng":"19.58083"},{"country":"AL","name":"Gosë e Madhe","lat":"41.09056","lng":"19.62472"},{"country":"AL","name":"Golem","lat":"40.96778","lng":"19.68528"},{"country":"AL","name":"Gjoçaj","lat":"41.02556","lng":"19.72389"},{"country":"AL","name":"Gjepalaj","lat":"41.33306","lng":"19.57806"},{"country":"AL","name":"Fushëkuqe","lat":"41.65028","lng":"19.62"},{"country":"AL","name":"Fushë-Krujë","lat":"41.47833","lng":"19.71778"},{"country":"AL","name":"Fratar","lat":"40.5","lng":"19.81667"},{"country":"AL","name":"Frakulla e Madhe","lat":"40.65583","lng":"19.5025"},{"country":"AL","name":"Fier-Shegan","lat":"40.86722","lng":"19.78528"},{"country":"AL","name":"Fier-Çifçi","lat":"40.71667","lng":"19.56667"},{"country":"AL","name":"Fier","lat":"40.72389","lng":"19.55611"},{"country":"AL","name":"Farka e Madhe","lat":"41.30556","lng":"19.86694"},{"country":"AL","name":"Durrës","lat":"41.32355","lng":"19.45469"},{"country":"AL","name":"Drenovë","lat":"40.60056","lng":"19.70083"},{"country":"AL","name":"Divjakë","lat":"40.99667","lng":"19.52944"},{"country":"AL","name":"Dërmënas","lat":"40.74556","lng":"19.49389"},{"country":"AL","name":"Vau i Dejës","lat":"42.01","lng":"19.62472"},{"country":"AL","name":"Dajt","lat":"41.39361","lng":"19.91583"},{"country":"AL","name":"Dajç","lat":"41.99167","lng":"19.41056"},{"country":"AL","name":"Dajç","lat":"41.91556","lng":"19.60444"},{"country":"AL","name":"Cukalat","lat":"40.73028","lng":"19.79056"},{"country":"AL","name":"Cudhi Zall","lat":"41.50944","lng":"19.84583"},{"country":"AL","name":"Cërrik","lat":"41.03167","lng":"19.97583"},{"country":"AL","name":"Cakran","lat":"40.60333","lng":"19.62611"},{"country":"AL","name":"Bushat","lat":"42.11944","lng":"19.89972"},{"country":"AL","name":"Bubullimë","lat":"40.81806","lng":"19.64083"},{"country":"AL","name":"Bubq","lat":"41.47417","lng":"19.65167"},{"country":"AL","name":"Brataj","lat":"40.26778","lng":"19.66917"},{"country":"AL","name":"Bërzhitë","lat":"41.24528","lng":"19.90111"},{"country":"AL","name":"Bërxull","lat":"41.38","lng":"19.6875"},{"country":"AL","name":"Bërdica e Madhe","lat":"42.01528","lng":"19.48167"},{"country":"AL","name":"Berat","lat":"40.70583","lng":"19.95222"},{"country":"AL","name":"Belsh","lat":"40.975","lng":"19.88194"},{"country":"AL","name":"Baz","lat":"41.63194","lng":"19.92917"},{"country":"AL","name":"Banaj","lat":"40.82472","lng":"19.83917"},{"country":"AL","name":"Ballsh","lat":"40.59889","lng":"19.73472"},{"country":"AL","name":"Ballagat","lat":"40.99528","lng":"19.76528"},{"country":"AL","name":"Baldushk","lat":"41.21389","lng":"19.79694"},{"country":"AL","name":"Armen","lat":"40.53639","lng":"19.59611"},{"country":"AL","name":"Aranitas","lat":"40.59444","lng":"19.80667"},{"country":"AL","name":"Allkaj","lat":"40.8575","lng":"19.75528"},{"country":"AL","name":"Golem","lat":"41.24583","lng":"19.53472"},{"country":"AL","name":"Balldreni i Ri","lat":"41.81917","lng":"19.64028"},{"country":"AL","name":"Grudë-Fushë","lat":"42.16222","lng":"19.49667"},{"country":"AL","name":"Fierzë","lat":"40.92056","lng":"19.84694"},{"country":"AL","name":"Dushk","lat":"40.72667","lng":"19.75722"},{"country":"AL","name":"Selitë","lat":"40.5475","lng":"19.84806"},{"country":"AL","name":"Vllahinë","lat":"40.45694","lng":"19.64361"},{"country":"AL","name":"Bajram Curri","lat":"42.35734","lng":"20.07679"},{"country":"AM","name":"Zarrit’ap’","lat":"39.63892","lng":"45.51111"},{"country":"AM","name":"Zangakatun","lat":"39.82233","lng":"45.04169"},{"country":"AM","name":"Goravan","lat":"39.90832","lng":"44.73328"},{"country":"AM","name":"Yeghegnavan","lat":"39.83893","lng":"44.61951"},{"country":"AM","name":"Yeghegnadzor","lat":"39.76389","lng":"45.33239"},{"country":"AM","name":"Vostan","lat":"39.96515","lng":"44.55937"},{"country":"AM","name":"Vosketap’","lat":"39.88114","lng":"44.64917"},{"country":"AM","name":"Vernashen","lat":"39.79236","lng":"45.36389"},{"country":"AM","name":"Verishen","lat":"39.53543","lng":"46.32063"},{"country":"AM","name":"Vedi","lat":"39.91388","lng":"44.7251"},{"country":"AM","name":"Vayk’","lat":"39.6889","lng":"45.46668"},{"country":"AM","name":"Tegh","lat":"39.55826","lng":"46.48054"},{"country":"AM","name":"Surenavan","lat":"39.79449","lng":"44.77508"},{"country":"AM","name":"Sisavan","lat":"39.90802","lng":"44.66721"},{"country":"AM","name":"Shinuhayr","lat":"39.4367","lng":"46.31787"},{"country":"AM","name":"Lusarrat","lat":"39.87403","lng":"44.58678"},{"country":"AM","name":"Shahumyan","lat":"39.94171","lng":"44.57233"},{"country":"AM","name":"Shatin","lat":"39.83612","lng":"45.30292"},{"country":"AM","name":"Shaghat","lat":"39.55698","lng":"45.90727"},{"country":"AM","name":"Rrind","lat":"39.76111","lng":"45.17792"},{"country":"AM","name":"Noyakert","lat":"39.83069","lng":"44.66949"},{"country":"AM","name":"Mrgavan","lat":"39.97251","lng":"44.53565"},{"country":"AM","name":"Meghri","lat":"38.90292","lng":"46.24458"},{"country":"AM","name":"Malishka","lat":"39.74731","lng":"45.4057"},{"country":"AM","name":"Khndzoresk","lat":"39.50568","lng":"46.4361"},{"country":"AM","name":"Kapan","lat":"39.20755","lng":"46.40576"},{"country":"AM","name":"Jermuk","lat":"39.84168","lng":"45.66949"},{"country":"AM","name":"Goris","lat":"39.51111","lng":"46.34168"},{"country":"AM","name":"Gladzor","lat":"39.7807","lng":"45.34729"},{"country":"AM","name":"Getap’","lat":"39.76392","lng":"45.30829"},{"country":"AM","name":"Dzorastan","lat":"39.27059","lng":"46.3572"},{"country":"AM","name":"Dalar","lat":"39.97653","lng":"44.52649"},{"country":"AM","name":"Burastan","lat":"39.99157","lng":"44.49681"},{"country":"AM","name":"Akner","lat":"39.53491","lng":"46.30732"},{"country":"AM","name":"Brrnakot’","lat":"39.49742","lng":"45.97241"},{"country":"AM","name":"Berk’anush","lat":"39.9779","lng":"44.51672"},{"country":"AM","name":"Aygezard","lat":"39.95436","lng":"44.60229"},{"country":"AM","name":"Aygepat","lat":"39.95845","lng":"44.59981"},{"country":"AM","name":"Aygavan","lat":"39.87327","lng":"44.66984"},{"country":"AM","name":"Avshar","lat":"39.85553","lng":"44.65832"},{"country":"AM","name":"Hats’avan","lat":"39.46405","lng":"45.97047"},{"country":"AM","name":"Artashat","lat":"39.96144","lng":"44.54447"},{"country":"AM","name":"Yeghegis","lat":"39.87231","lng":"45.3501"},{"country":"AM","name":"Armash","lat":"39.76672","lng":"44.8111"},{"country":"AM","name":"Areni","lat":"39.71668","lng":"45.18329"},{"country":"AM","name":"Ararat","lat":"39.83069","lng":"44.70569"},{"country":"AM","name":"Angeghakot’","lat":"39.56952","lng":"45.94452"},{"country":"AM","name":"Aghavnadzor","lat":"39.78607","lng":"45.2279"},{"country":"AM","name":"Agarakadzor","lat":"39.73608","lng":"45.35553"},{"country":"AM","name":"Agarak","lat":"39.20684","lng":"46.5446"},{"country":"AM","name":"Aralez","lat":"39.90008","lng":"44.6557"},{"country":"AM","name":"Horrom","lat":"40.65973","lng":"43.89032"},{"country":"AM","name":"Margara","lat":"40.03332","lng":"44.18048"},{"country":"AM","name":"Zovuni","lat":"40.51111","lng":"44.4389"},{"country":"AM","name":"Zovaber","lat":"40.56671","lng":"44.79028"},{"country":"AM","name":"Zorak","lat":"40.09168","lng":"44.39447"},{"country":"AM","name":"Zarr","lat":"40.25848","lng":"44.73328"},{"country":"AM","name":"Yerevan","lat":"40.18111","lng":"44.51361"},{"country":"AM","name":"Yerazgavors","lat":"40.69505","lng":"43.74722"},{"country":"AM","name":"Yeraskhahun","lat":"40.07233","lng":"44.21948"},{"country":"AM","name":"Yeranos","lat":"40.20428","lng":"45.19209"},{"country":"AM","name":"Yeghegnut","lat":"40.90302","lng":"44.63155"},{"country":"AM","name":"Yeghegnut","lat":"40.08893","lng":"44.16669"},{"country":"AM","name":"Ejmiatsin","lat":"40.16557","lng":"44.29462"},{"country":"AM","name":"Yeghvard","lat":"40.32507","lng":"44.48608"},{"country":"AM","name":"Voskevaz","lat":"40.27508","lng":"44.30011"},{"country":"AM","name":"Voskevan","lat":"41.12081","lng":"45.06381"},{"country":"AM","name":"Voskehask","lat":"40.76426","lng":"43.77474"},{"country":"AM","name":"Verin Getashen","lat":"40.13068","lng":"45.25293"},{"country":"AM","name":"Verin Dvin","lat":"40.02434","lng":"44.59038"},{"country":"AM","name":"Verin Artashat","lat":"39.99731","lng":"44.58893"},{"country":"AM","name":"Akht’ala","lat":"41.16838","lng":"44.75811"},{"country":"AM","name":"Varser","lat":"40.55548","lng":"44.90832"},{"country":"AM","name":"Vardenis","lat":"40.18329","lng":"45.73053"},{"country":"AM","name":"Vardenik","lat":"40.13348","lng":"45.44311"},{"country":"AM","name":"Vahan","lat":"40.57549","lng":"45.39769"},{"country":"AM","name":"Vaghashen","lat":"40.13611","lng":"45.33069"},{"country":"AM","name":"Vahagni","lat":"40.90698","lng":"44.60873"},{"country":"AM","name":"Ushi","lat":"40.34729","lng":"44.37512"},{"country":"AM","name":"Urrut","lat":"41.06778","lng":"44.39628"},{"country":"AM","name":"Tsovinar","lat":"40.15959","lng":"45.46786"},{"country":"AM","name":"Tsovazard","lat":"40.4751","lng":"45.05011"},{"country":"AM","name":"Tsovak","lat":"40.18254","lng":"45.63286"},{"country":"AM","name":"Tsovagyugh","lat":"40.63348","lng":"44.96112"},{"country":"AM","name":"Tsaghkunk’","lat":"40.18048","lng":"44.27228"},{"country":"AM","name":"Tsaghkahovit","lat":"40.63428","lng":"44.22241"},{"country":"AM","name":"Tsaghkaber","lat":"40.79849","lng":"44.10144"},{"country":"AM","name":"Tsaghkadzor","lat":"40.53259","lng":"44.72025"},{"country":"AM","name":"Tsovasar","lat":"40.1382","lng":"45.19096"},{"country":"AM","name":"Tashir","lat":"41.12072","lng":"44.28462"},{"country":"AM","name":"Tandzut","lat":"40.06952","lng":"44.07788"},{"country":"AM","name":"T’alin","lat":"40.39172","lng":"43.87793"},{"country":"AM","name":"Step’anavan","lat":"41.00995","lng":"44.38531"},{"country":"AM","name":"Spitak","lat":"40.83221","lng":"44.26731"},{"country":"AM","name":"Spandaryan","lat":"40.66105","lng":"44.01551"},{"country":"AM","name":"Alashkert","lat":"40.10712","lng":"44.05108"},{"country":"AM","name":"Solak","lat":"40.46252","lng":"44.70709"},{"country":"AM","name":"Sis","lat":"40.05829","lng":"44.38892"},{"country":"AM","name":"Shnogh","lat":"41.14693","lng":"44.84043"},{"country":"AM","name":"Shirak","lat":"40.84042","lng":"43.91582"},{"country":"AM","name":"Shenavan","lat":"40.48328","lng":"44.38348"},{"country":"AM","name":"Shenavan","lat":"40.05548","lng":"43.93048"},{"country":"AM","name":"Sevan","lat":"40.5473","lng":"44.94171"},{"country":"AM","name":"Sarukhan","lat":"40.29169","lng":"45.13068"},{"country":"AM","name":"Sarigyugh","lat":"41.03531","lng":"45.14486"},{"country":"AM","name":"Saratak","lat":"40.6709","lng":"43.87231"},{"country":"AM","name":"Saramej","lat":"40.77487","lng":"44.2222"},{"country":"AM","name":"Sarahart’","lat":"40.87043","lng":"44.21407"},{"country":"AM","name":"Geghakert","lat":"40.18516","lng":"44.24331"},{"country":"AM","name":"Ptghni","lat":"40.25568","lng":"44.58612"},{"country":"AM","name":"Ptghunk’","lat":"40.16388","lng":"44.36389"},{"country":"AM","name":"P’shatavan","lat":"40.03888","lng":"44.06671"},{"country":"AM","name":"Prroshyan","lat":"40.24731","lng":"44.41949"},{"country":"AM","name":"P’ok’r Mant’ash","lat":"40.64026","lng":"44.04666"},{"country":"AM","name":"Zoravan","lat":"40.35553","lng":"44.52228"},{"country":"AM","name":"Pemzashen","lat":"40.58612","lng":"43.94311"},{"country":"AM","name":"Parravak’ar","lat":"40.98248","lng":"45.36696"},{"country":"AM","name":"Oshakan","lat":"40.26392","lng":"44.31671"},{"country":"AM","name":"Sardarapat","lat":"40.13206","lng":"44.00969"},{"country":"AM","name":"Odzun","lat":"41.05321","lng":"44.61341"},{"country":"AM","name":"Noyemberyan","lat":"41.17244","lng":"44.99917"},{"country":"AM","name":"Nor Gyugh","lat":"40.26672","lng":"44.65832"},{"country":"AM","name":"Nor Geghi","lat":"40.32233","lng":"44.58331"},{"country":"AM","name":"Norashen","lat":"41.18886","lng":"44.33336"},{"country":"AM","name":"Norashen","lat":"40.0013","lng":"44.59296"},{"country":"AM","name":"Nor Armavir","lat":"40.08612","lng":"43.99451"},{"country":"AM","name":"Noramarg","lat":"40.02228","lng":"44.42511"},{"country":"AM","name":"Norakert","lat":"40.19733","lng":"44.3501"},{"country":"AM","name":"Noratus","lat":"40.37793","lng":"45.18048"},{"country":"AM","name":"Nerk’in Getashen","lat":"40.14172","lng":"45.27087"},{"country":"AM","name":"Navur","lat":"40.86695","lng":"45.34179"},{"country":"AM","name":"Nalbandyan","lat":"40.0639","lng":"43.98889"},{"country":"AM","name":"Basen","lat":"40.75767","lng":"43.99274"},{"country":"AM","name":"Hovtamej","lat":"40.18329","lng":"44.25848"},{"country":"AM","name":"Mrgashen","lat":"40.28607","lng":"44.54449"},{"country":"AM","name":"Mrgashat","lat":"40.13068","lng":"44.08069"},{"country":"AM","name":"Mrganush","lat":"40.02857","lng":"44.55831"},{"country":"AM","name":"Mosesgegh","lat":"40.90534","lng":"45.48838"},{"country":"AM","name":"Mets Parni","lat":"40.83472","lng":"44.11108"},{"country":"AM","name":"Mets Masrik","lat":"40.21948","lng":"45.76391"},{"country":"AM","name":"Mets Mant’ash","lat":"40.64376","lng":"44.05653"},{"country":"AM","name":"Metsavan","lat":"41.20156","lng":"44.22877"},{"country":"AM","name":"Metsamor","lat":"40.07233","lng":"44.29169"},{"country":"AM","name":"Merdzavan","lat":"40.1814","lng":"44.40033"},{"country":"AM","name":"Meghrashen","lat":"40.6723","lng":"43.95831"},{"country":"AM","name":"Meghradzor","lat":"40.60611","lng":"44.65147"},{"country":"AM","name":"Mayakovski","lat":"40.25293","lng":"44.63892"},{"country":"AM","name":"Masis","lat":"40.06542","lng":"44.41618"},{"country":"AM","name":"Martuni","lat":"40.13892","lng":"45.30548"},{"country":"AM","name":"Marmarashen","lat":"40.05829","lng":"44.47229"},{"country":"AM","name":"Marmashen","lat":"40.83486","lng":"43.7779"},{"country":"AM","name":"Margahovit","lat":"40.73381","lng":"44.68474"},{"country":"AM","name":"Maralik","lat":"40.57507","lng":"43.87231"},{"country":"AM","name":"Mayisyan","lat":"40.84715","lng":"43.83938"},{"country":"AM","name":"Madina","lat":"40.07637","lng":"45.25507"},{"country":"AM","name":"Lukashin","lat":"40.18726","lng":"44.0039"},{"country":"AM","name":"Lorut","lat":"40.93717","lng":"44.77142"},{"country":"AM","name":"Lichk’","lat":"40.15933","lng":"45.23467"},{"country":"AM","name":"Lerrnavan","lat":"40.7882","lng":"44.16024"},{"country":"AM","name":"Lerrnapat","lat":"40.81538","lng":"44.39344"},{"country":"AM","name":"Lerrnants’k’","lat":"40.79532","lng":"44.27435"},{"country":"AM","name":"Lerrnanist","lat":"40.46676","lng":"44.79249"},{"country":"AM","name":"Lerrnakert","lat":"40.5625","lng":"43.9389"},{"country":"AM","name":"Khoronk’","lat":"40.13611","lng":"44.24731"},{"country":"AM","name":"Lchashen","lat":"40.51947","lng":"44.93048"},{"country":"AM","name":"Lchap’","lat":"40.45569","lng":"45.07507"},{"country":"AM","name":"Lanjaghbyur","lat":"40.26947","lng":"45.14447"},{"country":"AM","name":"Kotayk’","lat":"40.27789","lng":"44.66388"},{"country":"AM","name":"Kosh","lat":"40.30011","lng":"44.16107"},{"country":"AM","name":"Vanadzor","lat":"40.80456","lng":"44.4939"},{"country":"AM","name":"Hnaberd","lat":"40.63721","lng":"44.14058"},{"country":"AM","name":"Khasht’arrak","lat":"40.93668","lng":"45.1821"},{"country":"AM","name":"Kasakh","lat":"40.53697","lng":"44.41046"},{"country":"AM","name":"Karchaghbyur","lat":"40.17048","lng":"45.57785"},{"country":"AM","name":"Karbi","lat":"40.33069","lng":"44.37793"},{"country":"AM","name":"Karanlukh","lat":"40.10444","lng":"45.28972"},{"country":"AM","name":"Kaputan","lat":"40.32507","lng":"44.70007"},{"country":"AM","name":"K’anak’erravan","lat":"40.24739","lng":"44.53511"},{"country":"AM","name":"Kamo","lat":"40.82572","lng":"43.95071"},{"country":"AM","name":"Gavarr","lat":"40.35398","lng":"45.12386"},{"country":"AM","name":"Mayisyan","lat":"40.15701","lng":"44.09192"},{"country":"AM","name":"Shahumyan","lat":"40.77482","lng":"44.54596"},{"country":"AM","name":"Ijevan","lat":"40.87877","lng":"45.14851"},{"country":"AM","name":"Hrazdan","lat":"40.49748","lng":"44.7662"},{"country":"AM","name":"Armavir","lat":"40.15446","lng":"44.03815"},{"country":"AM","name":"Hayanist","lat":"40.12231","lng":"44.37793"},{"country":"AM","name":"Haghartsin","lat":"40.77614","lng":"44.96847"},{"country":"AM","name":"Gyumri","lat":"40.7942","lng":"43.84528"},{"country":"AM","name":"Gyulagarak","lat":"40.96715","lng":"44.47144"},{"country":"AM","name":"Ghukasavan","lat":"40.12793","lng":"44.41669"},{"country":"AM","name":"Geghamasar","lat":"40.31091","lng":"45.67924"},{"country":"AM","name":"Gugark’","lat":"40.8046","lng":"44.54025"},{"country":"AM","name":"Tsiatsan","lat":"40.1861","lng":"44.26947"},{"country":"AM","name":"Goght’","lat":"40.1347","lng":"44.78332"},{"country":"AM","name":"Gogaran","lat":"40.89255","lng":"44.19915"},{"country":"AM","name":"Getazat","lat":"40.03844","lng":"44.56369"},{"country":"AM","name":"Getashen","lat":"40.04449","lng":"43.94171"},{"country":"AM","name":"Geghanist","lat":"40.14587","lng":"44.43048"},{"country":"AM","name":"Geghamavan","lat":"40.5625","lng":"44.88892"},{"country":"AM","name":"Garrni","lat":"40.11931","lng":"44.73442"},{"country":"AM","name":"Gagarin","lat":"40.54026","lng":"44.86962"},{"country":"AM","name":"Fantan","lat":"40.39447","lng":"44.6861"},{"country":"AM","name":"Fioletovo","lat":"40.72241","lng":"44.71769"},{"country":"AM","name":"Dzoraghbyur","lat":"40.20412","lng":"44.6415"},{"country":"AM","name":"Dzoragyugh","lat":"40.16957","lng":"45.18337"},{"country":"AM","name":"Dzit’hank’ov","lat":"40.50848","lng":"43.82092"},{"country":"AM","name":"Jrashen","lat":"40.79028","lng":"44.18664"},{"country":"AM","name":"Jrashen","lat":"40.05275","lng":"44.51259"},{"country":"AM","name":"Jrahovit","lat":"40.0473","lng":"44.4751"},{"country":"AM","name":"Janfida","lat":"40.04449","lng":"44.02789"},{"country":"AM","name":"Dvin","lat":"40.01984","lng":"44.58376"},{"country":"AM","name":"Dsegh","lat":"40.9617","lng":"44.65003"},{"country":"AM","name":"Drakhtik","lat":"40.56497","lng":"45.2367"},{"country":"AM","name":"Doghs","lat":"40.22229","lng":"44.27228"},{"country":"AM","name":"Dilijan","lat":"40.7417","lng":"44.8501"},{"country":"AM","name":"Ddmashen","lat":"40.57028","lng":"44.82295"},{"country":"AM","name":"Darpas","lat":"40.83674","lng":"44.42494"},{"country":"AM","name":"Dalarik","lat":"40.2279","lng":"43.87793"},{"country":"AM","name":"Chochkan","lat":"41.18118","lng":"44.83217"},{"country":"AM","name":"Chambarak","lat":"40.59655","lng":"45.35498"},{"country":"AM","name":"Bjni","lat":"40.45831","lng":"44.65008"},{"country":"AM","name":"Byureghavan","lat":"40.31417","lng":"44.59333"},{"country":"AM","name":"Byurakan","lat":"40.33894","lng":"44.27275"},{"country":"AM","name":"Buzhakan","lat":"40.45569","lng":"44.51947"},{"country":"AM","name":"Berd","lat":"40.88135","lng":"45.38901"},{"country":"AM","name":"Bazum","lat":"40.86763","lng":"44.43978"},{"country":"AM","name":"Byuravan","lat":"40.01604","lng":"44.51889"},{"country":"AM","name":"Bambakashat","lat":"40.10828","lng":"44.01947"},{"country":"AM","name":"Balahovit","lat":"40.25153","lng":"44.60828"},{"country":"AM","name":"Bagratashen","lat":"41.24358","lng":"44.81737"},{"country":"AM","name":"Azatan","lat":"40.71959","lng":"43.82727"},{"country":"AM","name":"Haykavan","lat":"40.80312","lng":"43.75173"},{"country":"AM","name":"Aygestan","lat":"40.00293","lng":"44.55829"},{"country":"AM","name":"Aygeshat","lat":"40.23608","lng":"44.28888"},{"country":"AM","name":"Aygeshat","lat":"40.07507","lng":"44.0611"},{"country":"AM","name":"Aknalich","lat":"40.14728","lng":"44.16669"},{"country":"AM","name":"Aygehovit","lat":"40.97951","lng":"45.25033"},{"country":"AM","name":"Artimet","lat":"40.15008","lng":"44.26672"},{"country":"AM","name":"Astghadzor","lat":"40.12231","lng":"45.35553"},{"country":"AM","name":"Ashtarak","lat":"40.2991","lng":"44.36204"},{"country":"AM","name":"Ashnak","lat":"40.33069","lng":"43.91669"},{"country":"AM","name":"Arzni","lat":"40.2973","lng":"44.59869"},{"country":"AM","name":"Arzakan","lat":"40.45007","lng":"44.60828"},{"country":"AM","name":"Arteni","lat":"40.2973","lng":"43.76672"},{"country":"AM","name":"Arshaluys","lat":"40.16949","lng":"44.21393"},{"country":"AM","name":"Argel","lat":"40.37793","lng":"44.6001"},{"country":"AM","name":"Argavand","lat":"40.15289","lng":"44.4389"},{"country":"AM","name":"Argavand","lat":"40.0611","lng":"44.09448"},{"country":"AM","name":"Arevshat","lat":"40.65345","lng":"44.04419"},{"country":"AM","name":"Arevshat","lat":"40.03963","lng":"44.54179"},{"country":"AM","name":"Arevik","lat":"40.7417","lng":"43.9043"},{"country":"AM","name":"Arevik","lat":"40.1001","lng":"44.09448"},{"country":"AM","name":"Arevashogh","lat":"40.86039","lng":"44.27438"},{"country":"AM","name":"Arevashat","lat":"40.14447","lng":"44.37512"},{"country":"AM","name":"Archis","lat":"41.16351","lng":"44.87631"},{"country":"AM","name":"Arbat’","lat":"40.13892","lng":"44.40289"},{"country":"AM","name":"Arazap’","lat":"40.04169","lng":"44.14728"},{"country":"AM","name":"Arrap’i","lat":"40.78276","lng":"43.80583"},{"country":"AM","name":"Aramus","lat":"40.25095","lng":"44.66351"},{"country":"AM","name":"Arak’s","lat":"40.05548","lng":"44.30292"},{"country":"AM","name":"Aragats","lat":"40.48889","lng":"44.3529"},{"country":"AM","name":"Aparan","lat":"40.59323","lng":"44.3589"},{"country":"AM","name":"Apaga","lat":"40.09729","lng":"44.25293"},{"country":"AM","name":"Anushavan","lat":"40.65008","lng":"43.98053"},{"country":"AM","name":"Amasia","lat":"40.95442","lng":"43.7872"},{"country":"AM","name":"Alaverdi","lat":"41.09766","lng":"44.67316"},{"country":"AM","name":"Akunk’","lat":"40.26672","lng":"44.6861"},{"country":"AM","name":"Akunk’","lat":"40.15886","lng":"45.72568"},{"country":"AM","name":"Akhuryan","lat":"40.78003","lng":"43.90027"},{"country":"AM","name":"Aghavnatun","lat":"40.2333","lng":"44.25295"},{"country":"AM","name":"Aghavnadzor","lat":"40.58195","lng":"44.69581"},{"country":"AM","name":"Agarak","lat":"41.01072","lng":"44.46845"},{"country":"AM","name":"Agarakavan","lat":"40.33069","lng":"44.07233"},{"country":"AM","name":"Abovyan","lat":"40.27368","lng":"44.63348"},{"country":"AM","name":"Abovyan","lat":"40.04851","lng":"44.54742"},{"country":"AM","name":"Vardablur","lat":"40.97083","lng":"44.50889"},{"country":"AM","name":"Bardzrashen","lat":"40.08533","lng":"44.57957"},{"country":"AM","name":"Nshavan","lat":"40.02787","lng":"44.52565"},{"country":"AM","name":"Norabats’","lat":"40.10553","lng":"44.43329"},{"country":"AM","name":"Berdavan","lat":"41.20503","lng":"44.99967"},{"country":"AM","name":"Shirakamut","lat":"40.86056","lng":"44.15278"},{"country":"AM","name":"Azatamut","lat":"40.98204","lng":"45.18551"},{"country":"AM","name":"Getahovit","lat":"40.89784","lng":"45.13971"},{"country":"AM","name":"Artsvaberd","lat":"40.83947","lng":"45.47033"},{"country":"AM","name":"Nor Yerznka","lat":"40.30011","lng":"44.38892"},{"country":"AM","name":"Sasunik","lat":"40.25012","lng":"44.34448"},{"country":"AM","name":"Kamaris","lat":"40.23539","lng":"44.69459"},{"country":"AM","name":"Gandzak","lat":"40.31472","lng":"45.11139"},{"country":"AM","name":"Myasnikyan","lat":"40.18048","lng":"43.91949"},{"country":"AM","name":"Lenughi","lat":"40.12512","lng":"43.96393"},{"country":"AM","name":"Metsamor","lat":"40.14447","lng":"44.1167"},{"country":"AM","name":"Gay","lat":"40.08444","lng":"44.30528"},{"country":"AM","name":"Baghramyan","lat":"40.19452","lng":"44.36951"},{"country":"AM","name":"Musalerr","lat":"40.1557","lng":"44.37793"},{"country":"AM","name":"Darakert","lat":"40.10553","lng":"44.41388"},{"country":"AM","name":"Dashtavan","lat":"40.1001","lng":"44.39172"},{"country":"AM","name":"Nizami","lat":"40.09168","lng":"44.4057"},{"country":"AM","name":"Artsvanist","lat":"40.14617","lng":"45.51711"},{"country":"AM","name":"Vardadzor","lat":"40.18701","lng":"45.19212"},{"country":"AM","name":"Taronik","lat":"40.13367","lng":"44.19957"},{"country":"AM","name":"Aknashen","lat":"40.09551","lng":"44.28604"},{"country":"AM","name":"Haykashen","lat":"40.07233","lng":"44.30829"},{"country":"AM","name":"Hovtashat","lat":"40.09729","lng":"44.34448"},{"country":"AM","name":"Sayat’-Nova","lat":"40.07507","lng":"44.40008"},{"country":"AM","name":"Voskehat","lat":"40.14172","lng":"44.33069"},{"country":"AM","name":"Griboyedov","lat":"40.11307","lng":"44.27169"},{"country":"AM","name":"Gmbet’","lat":"40.22369","lng":"44.25409"},{"country":"AM","name":"Aygek","lat":"40.1889","lng":"44.38611"},{"country":"AM","name":"Hovtashen","lat":"40.02508","lng":"44.45007"},{"country":"AM","name":"Dimitrov","lat":"40.00848","lng":"44.4917"},{"country":"AM","name":"Mrgavet","lat":"40.02789","lng":"44.48328"},{"country":"AM","name":"Arevabuyr","lat":"40.03607","lng":"44.46948"},{"country":"AO","name":"Saurimo","lat":"-9.66078","lng":"20.39155"},{"country":"AO","name":"Lucapa","lat":"-8.41915","lng":"20.74466"},{"country":"AO","name":"Lumeje","lat":"-11.55","lng":"20.78333"},{"country":"AO","name":"Luau","lat":"-10.70727","lng":"22.22466"},{"country":"AO","name":"Léua","lat":"-11.65","lng":"20.45"},{"country":"AO","name":"Cazaji","lat":"-11.06715","lng":"20.70148"},{"country":"AO","name":"Uíge","lat":"-7.60874","lng":"15.06131"},{"country":"AO","name":"Soio","lat":"-6.1349","lng":"12.36894"},{"country":"AO","name":"N'zeto","lat":"-7.23116","lng":"12.8666"},{"country":"AO","name":"N’dalatando","lat":"-9.29782","lng":"14.91162"},{"country":"AO","name":"Mbanza Congo","lat":"-6.26703","lng":"14.2401"},{"country":"AO","name":"Malanje","lat":"-9.54015","lng":"16.34096"},{"country":"AO","name":"Luanda","lat":"-8.83682","lng":"13.23432"},{"country":"AO","name":"Caxito","lat":"-8.57848","lng":"13.66425"},{"country":"AO","name":"Camabatela","lat":"-8.18812","lng":"15.37495"},{"country":"AO","name":"Cabinda","lat":"-5.55","lng":"12.2"},{"country":"AO","name":"Uacu Cungo","lat":"-11.35669","lng":"15.11719"},{"country":"AO","name":"Sumbe","lat":"-11.20605","lng":"13.84371"},{"country":"AO","name":"Quibala","lat":"-10.73366","lng":"14.97995"},{"country":"AO","name":"Ondjiva","lat":"-17.06667","lng":"15.73333"},{"country":"AO","name":"Namibe","lat":"-15.19611","lng":"12.15222"},{"country":"AO","name":"Menongue","lat":"-14.6585","lng":"17.69099"},{"country":"AO","name":"Luena","lat":"-11.78333","lng":"19.91667"},{"country":"AO","name":"Lubango","lat":"-14.91717","lng":"13.4925"},{"country":"AO","name":"Longonjo","lat":"-12.90667","lng":"15.25333"},{"country":"AO","name":"Lobito","lat":"-12.3644","lng":"13.53601"},{"country":"AO","name":"Cuito","lat":"-12.38333","lng":"16.93333"},{"country":"AO","name":"Huambo","lat":"-12.77611","lng":"15.73917"},{"country":"AO","name":"Chissamba","lat":"-12.16667","lng":"17.33333"},{"country":"AO","name":"Catumbela","lat":"-12.43002","lng":"13.54677"},{"country":"AO","name":"Catabola","lat":"-12.15","lng":"17.28333"},{"country":"AO","name":"Camacupa","lat":"-12.01667","lng":"17.48333"},{"country":"AO","name":"Caluquembe","lat":"-13.78333","lng":"14.68333"},{"country":"AO","name":"Caconda","lat":"-13.73333","lng":"15.06667"},{"country":"AO","name":"Caála","lat":"-12.8525","lng":"15.56056"},{"country":"AO","name":"Benguela","lat":"-12.57626","lng":"13.40547"},{"country":"AO","name":"Chela","lat":"-12.30261","lng":"15.43358"},{"country":"AO","name":"Chinjenje","lat":"-12.93244","lng":"14.99238"},{"country":"AQ","name":"McMurdo Station","lat":"-77.846","lng":"166.676"},{"country":"AR","name":"Zárate","lat":"-34.09814","lng":"-59.02858"},{"country":"AR","name":"Yataity Calle","lat":"-29.01913","lng":"-58.90846"},{"country":"AR","name":"Yapeyú","lat":"-29.46914","lng":"-56.81841"},{"country":"AR","name":"Wanda","lat":"-25.96879","lng":"-54.56285"},{"country":"AR","name":"Villa Paranacito","lat":"-33.72207","lng":"-58.65798"},{"country":"AR","name":"Villa Ortúzar","lat":"-34.57973","lng":"-58.46829"},{"country":"AR","name":"Villa Ocampo","lat":"-28.48752","lng":"-59.35515"},{"country":"AR","name":"Villa María Grande","lat":"-31.66565","lng":"-59.90182"},{"country":"AR","name":"Villa Mantero","lat":"-32.39727","lng":"-58.74596"},{"country":"AR","name":"Villa Lugano","lat":"-34.67907","lng":"-58.47263"},{"country":"AR","name":"Villa Hernandarias","lat":"-31.23101","lng":"-59.985"},{"country":"AR","name":"Villaguay","lat":"-31.8653","lng":"-59.02689"},{"country":"AR","name":"Villa Gesell","lat":"-37.26394","lng":"-56.97304"},{"country":"AR","name":"Villa Escolar","lat":"-26.62209","lng":"-58.67134"},{"country":"AR","name":"Villa Elisa","lat":"-32.1632","lng":"-58.40082"},{"country":"AR","name":"Villa del Rosario","lat":"-30.79567","lng":"-57.91257"},{"country":"AR","name":"Verónica","lat":"-35.38796","lng":"-57.33691"},{"country":"AR","name":"Veinticinco de Mayo","lat":"-27.37679","lng":"-54.74312"},{"country":"AR","name":"Urdinarrain","lat":"-32.68573","lng":"-58.89323"},{"country":"AR","name":"Ubajay","lat":"-31.79358","lng":"-58.3135"},{"country":"AR","name":"Tres Capones","lat":"-28.00641","lng":"-55.60471"},{"country":"AR","name":"Tigre","lat":"-34.42603","lng":"-58.57962"},{"country":"AR","name":"Tandil","lat":"-37.32167","lng":"-59.13316"},{"country":"AR","name":"Tacuarendí","lat":"-28.41265","lng":"-59.26"},{"country":"AR","name":"Tabossi","lat":"-31.80135","lng":"-59.93477"},{"country":"AR","name":"Suipacha","lat":"-34.7702","lng":"-59.68783"},{"country":"AR","name":"Sauce de Luna","lat":"-31.23794","lng":"-59.21872"},{"country":"AR","name":"Sauce","lat":"-30.08671","lng":"-58.78777"},{"country":"AR","name":"San Vicente","lat":"-35.025","lng":"-58.42276"},{"country":"AR","name":"San Vicente","lat":"-26.61667","lng":"-54.13333"},{"country":"AR","name":"Santo Tomé","lat":"-28.54939","lng":"-56.04077"},{"country":"AR","name":"Santo Pipó","lat":"-27.14132","lng":"-55.40867"},{"country":"AR","name":"Santa Rosa","lat":"-28.26318","lng":"-58.11891"},{"country":"AR","name":"Santa María","lat":"-27.90357","lng":"-55.38541"},{"country":"AR","name":"Santa Lucía","lat":"-28.98746","lng":"-59.10287"},{"country":"AR","name":"Santa Elena","lat":"-30.94768","lng":"-59.78696"},{"country":"AR","name":"Santa Anita","lat":"-32.17476","lng":"-58.78622"},{"country":"AR","name":"Santa Ana","lat":"-30.90004","lng":"-57.93162"},{"country":"AR","name":"Santa Ana","lat":"-27.3674","lng":"-55.58091"},{"country":"AR","name":"San Salvador","lat":"-31.62487","lng":"-58.50524"},{"country":"AR","name":"San Roque","lat":"-28.57457","lng":"-58.70817"},{"country":"AR","name":"San Pedro","lat":"-33.67918","lng":"-59.66633"},{"country":"AR","name":"San Pedro","lat":"-26.62207","lng":"-54.10842"},{"country":"AR","name":"San Miguel del Monte","lat":"-35.43962","lng":"-58.80675"},{"country":"AR","name":"San Miguel","lat":"-27.99585","lng":"-57.58964"},{"country":"AR","name":"San Luis del Palmar","lat":"-27.5079","lng":"-58.55454"},{"country":"AR","name":"San Lorenzo","lat":"-28.13306","lng":"-58.76733"},{"country":"AR","name":"San Justo","lat":"-34.6766","lng":"-58.56058"},{"country":"AR","name":"San Justo","lat":"-32.44654","lng":"-58.43569"},{"country":"AR","name":"San José de Feliciano","lat":"-30.38452","lng":"-58.75167"},{"country":"AR","name":"San José","lat":"-27.76979","lng":"-55.7826"},{"country":"AR","name":"San Javier","lat":"-30.57781","lng":"-59.9317"},{"country":"AR","name":"San Javier","lat":"-27.87427","lng":"-55.13509"},{"country":"AR","name":"San Isidro","lat":"-34.4721","lng":"-58.52708"},{"country":"AR","name":"San Ignacio","lat":"-27.25586","lng":"-55.5339"},{"country":"AR","name":"San Gustavo","lat":"-30.68961","lng":"-59.3984"},{"country":"AR","name":"San Francisco de Laishí","lat":"-26.24262","lng":"-58.63039"},{"country":"AR","name":"San Cosme","lat":"-27.37123","lng":"-58.51214"},{"country":"AR","name":"San Clemente del Tuyú","lat":"-36.35694","lng":"-56.72351"},{"country":"AR","name":"San Cayetano","lat":"-38.34653","lng":"-59.60954"},{"country":"AR","name":"San Carlos","lat":"-27.74586","lng":"-55.89731"},{"country":"AR","name":"San Antonio de Areco","lat":"-34.2503","lng":"-59.47163"},{"country":"AR","name":"San Andrés de Giles","lat":"-34.44721","lng":"-59.44451"},{"country":"AR","name":"Saladillo","lat":"-35.63708","lng":"-59.77788"},{"country":"AR","name":"Saladas","lat":"-28.25384","lng":"-58.62591"},{"country":"AR","name":"Ruiz de Montoya","lat":"-26.98333","lng":"-55.05"},{"country":"AR","name":"Rosario del Tala","lat":"-32.30286","lng":"-59.14545"},{"country":"AR","name":"Roque Pérez","lat":"-35.39794","lng":"-59.33271"},{"country":"AR","name":"Riachuelo","lat":"-27.57754","lng":"-58.73945"},{"country":"AR","name":"Riacho Eh-Eh","lat":"-25.36209","lng":"-58.2775"},{"country":"AR","name":"Retiro","lat":"-34.58333","lng":"-58.38333"},{"country":"AR","name":"Resistencia","lat":"-27.46056","lng":"-58.98389"},{"country":"AR","name":"Reconquista","lat":"-29.15","lng":"-59.65"},{"country":"AR","name":"Rauch","lat":"-36.7745","lng":"-59.08973"},{"country":"AR","name":"Ranchos","lat":"-35.51619","lng":"-58.31733"},{"country":"AR","name":"Quilmes","lat":"-34.72904","lng":"-58.26374"},{"country":"AR","name":"Puerto Yeruá","lat":"-31.53713","lng":"-58.01527"},{"country":"AR","name":"Puerto Vilelas","lat":"-27.51414","lng":"-58.93906"},{"country":"AR","name":"Puerto Tirol","lat":"-27.37218","lng":"-59.08206"},{"country":"AR","name":"Puerto Rico","lat":"-26.79598","lng":"-55.02402"},{"country":"AR","name":"Puerto Piray","lat":"-26.46779","lng":"-54.71476"},{"country":"AR","name":"Puerto Libertad","lat":"-25.91641","lng":"-54.62089"},{"country":"AR","name":"Puerto Leoni","lat":"-26.96069","lng":"-55.1657"},{"country":"AR","name":"Puerto Iguazú","lat":"-25.59912","lng":"-54.57355"},{"country":"AR","name":"Puerto Ibicuy","lat":"-33.73333","lng":"-59.18333"},{"country":"AR","name":"Puerto Esperanza","lat":"-26.01517","lng":"-54.67306"},{"country":"AR","name":"Puerto Eldorado","lat":"-26.40843","lng":"-54.69463"},{"country":"AR","name":"Puerto Bermejo","lat":"-26.93173","lng":"-58.50538"},{"country":"AR","name":"Pueblo Libertador","lat":"-30.22087","lng":"-59.38981"},{"country":"AR","name":"Pronunciamiento","lat":"-32.34617","lng":"-58.43287"},{"country":"AR","name":"Presidencia Roca","lat":"-26.1409","lng":"-59.59541"},{"country":"AR","name":"Presidencia de la Plaza","lat":"-27.00147","lng":"-59.84243"},{"country":"AR","name":"Posadas","lat":"-27.36708","lng":"-55.89608"},{"country":"AR","name":"Pontevedra","lat":"-34.74785","lng":"-58.70072"},{"country":"AR","name":"Pirané","lat":"-25.73239","lng":"-59.10879"},{"country":"AR","name":"Pinamar","lat":"-37.10795","lng":"-56.8614"},{"country":"AR","name":"Pilar","lat":"-34.45866","lng":"-58.9142"},{"country":"AR","name":"Pila","lat":"-36.00058","lng":"-58.14391"},{"country":"AR","name":"Piedras Blancas","lat":"-31.18623","lng":"-59.95957"},{"country":"AR","name":"Picada Gobernador López","lat":"-27.67069","lng":"-55.24585"},{"country":"AR","name":"Perugorría","lat":"-29.34132","lng":"-58.61059"},{"country":"AR","name":"Pedro R. Fernández","lat":"-28.75097","lng":"-58.65583"},{"country":"AR","name":"Paso de los Libres","lat":"-29.71251","lng":"-57.08771"},{"country":"AR","name":"Paso de la Patria","lat":"-27.31676","lng":"-58.57197"},{"country":"AR","name":"Panambí","lat":"-27.72369","lng":"-54.91515"},{"country":"AR","name":"Pampa del Indio","lat":"-26.06468","lng":"-59.91898"},{"country":"AR","name":"Pampa Almirón","lat":"-26.7","lng":"-59.13333"},{"country":"AR","name":"Palo Santo","lat":"-25.56332","lng":"-59.33781"},{"country":"AR","name":"Palmar Grande","lat":"-27.94195","lng":"-57.90057"},{"country":"AR","name":"Olivos","lat":"-34.50747","lng":"-58.48703"},{"country":"AR","name":"Oberá","lat":"-27.48706","lng":"-55.11994"},{"country":"AR","name":"Nueve de Julio","lat":"-28.84051","lng":"-58.8265"},{"country":"AR","name":"Nuestra Señora del Rosario de Caa Catí","lat":"-27.75072","lng":"-57.62073"},{"country":"AR","name":"Nogoyá","lat":"-32.39387","lng":"-59.78953"},{"country":"AR","name":"Necochea","lat":"-38.5545","lng":"-58.73961"},{"country":"AR","name":"Navarro","lat":"-35.00559","lng":"-59.27699"},{"country":"AR","name":"Morón","lat":"-34.6509","lng":"-58.61956"},{"country":"AR","name":"Monte Caseros","lat":"-30.25359","lng":"-57.63626"},{"country":"AR","name":"Montecarlo","lat":"-26.5662","lng":"-54.757"},{"country":"AR","name":"Mojón Grande","lat":"-27.71165","lng":"-55.15631"},{"country":"AR","name":"Mocoretá","lat":"-30.61891","lng":"-57.96344"},{"country":"AR","name":"Miramar","lat":"-38.27161","lng":"-57.8389"},{"country":"AR","name":"Merlo","lat":"-34.66627","lng":"-58.72927"},{"country":"AR","name":"Mercedes","lat":"-34.65145","lng":"-59.43068"},{"country":"AR","name":"Mercedes","lat":"-29.18416","lng":"-58.07519"},{"country":"AR","name":"Mburucuyá","lat":"-28.04532","lng":"-58.22835"},{"country":"AR","name":"Mártires","lat":"-27.43333","lng":"-55.38333"},{"country":"AR","name":"Mariano I. Loza","lat":"-29.37667","lng":"-58.19436"},{"country":"AR","name":"Margarita Belén","lat":"-27.2616","lng":"-58.97219"},{"country":"AR","name":"Mar del Tuyú","lat":"-36.57531","lng":"-56.68883"},{"country":"AR","name":"Mar del Plata","lat":"-38.00228","lng":"-57.55754"},{"country":"AR","name":"Marcos Paz","lat":"-34.78063","lng":"-58.8379"},{"country":"AR","name":"Malabrigo","lat":"-29.34636","lng":"-59.96957"},{"country":"AR","name":"Makallé","lat":"-27.20687","lng":"-59.28696"},{"country":"AR","name":"Maipú","lat":"-36.86274","lng":"-57.88094"},{"country":"AR","name":"Magdalena","lat":"-35.08065","lng":"-57.51301"},{"country":"AR","name":"Maciá","lat":"-32.1722","lng":"-59.39947"},{"country":"AR","name":"Luján","lat":"-34.57028","lng":"-59.105"},{"country":"AR","name":"Lucas González","lat":"-32.3843","lng":"-59.53013"},{"country":"AR","name":"Los Helechos","lat":"-27.5576","lng":"-55.07683"},{"country":"AR","name":"Los Conquistadores","lat":"-30.5908","lng":"-58.46773"},{"country":"AR","name":"Los Charrúas","lat":"-31.17548","lng":"-58.18774"},{"country":"AR","name":"Loreto","lat":"-27.76834","lng":"-57.27531"},{"country":"AR","name":"Loreto","lat":"-27.33635","lng":"-55.52225"},{"country":"AR","name":"Lomas de Zamora","lat":"-34.76088","lng":"-58.40632"},{"country":"AR","name":"Lomas de Vallejos","lat":"-27.73501","lng":"-57.9185"},{"country":"AR","name":"Lobos","lat":"-35.18286","lng":"-59.08975"},{"country":"AR","name":"Lobería","lat":"-38.15574","lng":"-58.7913"},{"country":"AR","name":"Libertad","lat":"-30.043","lng":"-57.8202"},{"country":"AR","name":"Leandro N. Alem","lat":"-27.60341","lng":"-55.32491"},{"country":"AR","name":"La Verde","lat":"-27.12634","lng":"-59.37352"},{"country":"AR","name":"Las Toscas","lat":"-28.3529","lng":"-59.25795"},{"country":"AR","name":"Las Garcitas","lat":"-26.58333","lng":"-59.8"},{"country":"AR","name":"Las Flores","lat":"-36.01403","lng":"-59.09984"},{"country":"AR","name":"Larroque","lat":"-33.03595","lng":"-59.00125"},{"country":"AR","name":"La Plata","lat":"-34.92145","lng":"-57.95453"},{"country":"AR","name":"La Paz","lat":"-30.74485","lng":"-59.64566"},{"country":"AR","name":"Lapachito","lat":"-27.15997","lng":"-59.38605"},{"country":"AR","name":"Lanús","lat":"-34.70252","lng":"-58.3955"},{"country":"AR","name":"La Leonesa","lat":"-27.03786","lng":"-58.70347"},{"country":"AR","name":"Laguna Naick-Neck","lat":"-25.24769","lng":"-58.09383"},{"country":"AR","name":"Laguna Limpia","lat":"-26.49565","lng":"-59.68083"},{"country":"AR","name":"La Escondida","lat":"-27.10724","lng":"-59.44784"},{"country":"AR","name":"La Eduvigis","lat":"-26.85545","lng":"-59.06842"},{"country":"AR","name":"La Cruz","lat":"-29.17443","lng":"-56.64326"},{"country":"AR","name":"La Criolla","lat":"-31.26904","lng":"-58.10558"},{"country":"AR","name":"Juan Pujol","lat":"-30.41873","lng":"-57.85612"},{"country":"AR","name":"Jardín América","lat":"-27.04346","lng":"-55.22698"},{"country":"AR","name":"Ituzaingó","lat":"-34.65803","lng":"-58.66317"},{"country":"AR","name":"Ituzaingó","lat":"-27.58162","lng":"-56.68231"},{"country":"AR","name":"Itatí","lat":"-27.27043","lng":"-58.24458"},{"country":"AR","name":"Itá Ibaté","lat":"-27.42573","lng":"-57.33758"},{"country":"AR","name":"Ibarreta","lat":"-25.21438","lng":"-59.85851"},{"country":"AR","name":"Hurlingham","lat":"-34.59168","lng":"-58.64608"},{"country":"AR","name":"Herrera","lat":"-32.43516","lng":"-58.62462"},{"country":"AR","name":"Herradura","lat":"-26.48705","lng":"-58.31198"},{"country":"AR","name":"Herlitzka","lat":"-27.56516","lng":"-58.25557"},{"country":"AR","name":"Hasenkamp","lat":"-31.51226","lng":"-59.83545"},{"country":"AR","name":"Guaraní","lat":"-27.51667","lng":"-55.16667"},{"country":"AR","name":"Gualeguaychú","lat":"-33.00937","lng":"-58.51722"},{"country":"AR","name":"Gualeguay","lat":"-33.14156","lng":"-59.30966"},{"country":"AR","name":"Goya","lat":"-29.14395","lng":"-59.2651"},{"country":"AR","name":"Gobernador Roca","lat":"-27.18636","lng":"-55.46433"},{"country":"AR","name":"Gobernador Mansilla","lat":"-32.54453","lng":"-59.3548"},{"country":"AR","name":"Gobernador Juan E. Martínez","lat":"-28.91705","lng":"-58.93292"},{"country":"AR","name":"Gobernador Ingeniero Valentín Virasoro","lat":"-28.05","lng":"-56.03333"},{"country":"AR","name":"General Vedia","lat":"-26.93382","lng":"-58.6604"},{"country":"AR","name":"General San Martín","lat":"-34.57424","lng":"-58.53496"},{"country":"AR","name":"General Rodríguez","lat":"-34.60838","lng":"-58.95253"},{"country":"AR","name":"General Lavalle","lat":"-36.40633","lng":"-56.94329"},{"country":"AR","name":"General Las Heras","lat":"-34.92726","lng":"-58.94621"},{"country":"AR","name":"General Juan Madariaga","lat":"-36.99725","lng":"-57.13951"},{"country":"AR","name":"General José de San Martín","lat":"-26.53743","lng":"-59.34158"},{"country":"AR","name":"General Guido","lat":"-36.64074","lng":"-57.79174"},{"country":"AR","name":"General Galarza","lat":"-32.72034","lng":"-59.39615"},{"country":"AR","name":"General Conesa","lat":"-36.52013","lng":"-57.32537"},{"country":"AR","name":"General Campos","lat":"-31.52311","lng":"-58.4049"},{"country":"AR","name":"General Belgrano","lat":"-35.76952","lng":"-58.49341"},{"country":"AR","name":"General Alvear","lat":"-27.43333","lng":"-55.16667"},{"country":"AR","name":"Garupá","lat":"-27.48171","lng":"-55.82921"},{"country":"AR","name":"Garuhapé","lat":"-26.81768","lng":"-54.95665"},{"country":"AR","name":"Garruchos","lat":"-28.18514","lng":"-55.63947"},{"country":"AR","name":"Formosa","lat":"-26.17753","lng":"-58.17814"},{"country":"AR","name":"Fontana","lat":"-27.41813","lng":"-59.02392"},{"country":"AR","name":"Florentino Ameghino","lat":"-27.56667","lng":"-55.13333"},{"country":"AR","name":"Florencio Varela","lat":"-34.82722","lng":"-58.39556"},{"country":"AR","name":"Felipe Yofré","lat":"-29.10226","lng":"-58.33772"},{"country":"AR","name":"Federal","lat":"-30.95465","lng":"-58.78326"},{"country":"AR","name":"Federación","lat":"-31.00621","lng":"-57.89962"},{"country":"AR","name":"José María Ezeiza","lat":"-34.84787","lng":"-58.52869"},{"country":"AR","name":"Esquina","lat":"-30.01444","lng":"-59.52719"},{"country":"AR","name":"Espinillo","lat":"-24.98132","lng":"-58.5521"},{"country":"AR","name":"Ensenada","lat":"-34.86186","lng":"-57.91126"},{"country":"AR","name":"Empedrado","lat":"-27.95125","lng":"-58.80542"},{"country":"AR","name":"El Soberbio","lat":"-27.29847","lng":"-54.19877"},{"country":"AR","name":"Eldorado","lat":"-26.40484","lng":"-54.62478"},{"country":"AR","name":"El Colorado","lat":"-26.30808","lng":"-59.37291"},{"country":"AR","name":"El Alcázar","lat":"-26.71459","lng":"-54.81523"},{"country":"AR","name":"Dos de Mayo","lat":"-27.02277","lng":"-54.68669"},{"country":"AR","name":"Dos Arroyos","lat":"-27.70784","lng":"-55.23364"},{"country":"AR","name":"Domínguez","lat":"-31.9871","lng":"-58.96197"},{"country":"AR","name":"Dolores","lat":"-36.31321","lng":"-57.67918"},{"country":"AR","name":"Curuzú Cuatiá","lat":"-29.79171","lng":"-58.0546"},{"country":"AR","name":"Cruz de los Milagros","lat":"-28.83646","lng":"-59.00476"},{"country":"AR","name":"Coté-Lai","lat":"-27.5","lng":"-59.6"},{"country":"AR","name":"Corrientes","lat":"-27.4806","lng":"-58.8341"},{"country":"AR","name":"Coronel Vidal","lat":"-37.44604","lng":"-57.72865"},{"country":"AR","name":"Conscripto Bernardi","lat":"-31.04837","lng":"-59.08435"},{"country":"AR","name":"Concordia","lat":"-31.39296","lng":"-58.02089"},{"country":"AR","name":"Concepción del Uruguay","lat":"-32.48249","lng":"-58.23722"},{"country":"AR","name":"Concepción de la Sierra","lat":"-27.98311","lng":"-55.52031"},{"country":"AR","name":"Concepción","lat":"-28.39175","lng":"-57.88777"},{"country":"AR","name":"Comandante Fontana","lat":"-25.33453","lng":"-59.68212"},{"country":"AR","name":"Colonias Unidas","lat":"-26.69825","lng":"-59.63154"},{"country":"AR","name":"Colonia Elisa","lat":"-26.93041","lng":"-59.51861"},{"country":"AR","name":"Colonia Elía","lat":"-32.66625","lng":"-58.32148"},{"country":"AR","name":"Colonia Benítez","lat":"-27.33099","lng":"-58.94622"},{"country":"AR","name":"Colonia Aurora","lat":"-27.47428","lng":"-54.52498"},{"country":"AR","name":"Colón","lat":"-32.22337","lng":"-58.14341"},{"country":"AR","name":"Colegiales","lat":"-34.57365","lng":"-58.44924"},{"country":"AR","name":"Clorinda","lat":"-25.28481","lng":"-57.71851"},{"country":"AR","name":"Ciervo Petiso","lat":"-26.58041","lng":"-59.63094"},{"country":"AR","name":"Chavarría","lat":"-28.95489","lng":"-58.57277"},{"country":"AR","name":"Chascomús","lat":"-35.57297","lng":"-58.00809"},{"country":"AR","name":"Charadai","lat":"-27.63333","lng":"-59.9"},{"country":"AR","name":"Chajarí","lat":"-30.75048","lng":"-57.97962"},{"country":"AR","name":"Cerro Corá","lat":"-27.5131","lng":"-55.60896"},{"country":"AR","name":"Cerro Azul","lat":"-27.6331","lng":"-55.4962"},{"country":"AR","name":"Ceibas","lat":"-33.43333","lng":"-58.75"},{"country":"AR","name":"Castelli","lat":"-36.08949","lng":"-57.80393"},{"country":"AR","name":"Caseros","lat":"-34.60333","lng":"-58.56409"},{"country":"AR","name":"Caseros","lat":"-32.46325","lng":"-58.47872"},{"country":"AR","name":"Carmen de Areco","lat":"-34.37743","lng":"-59.82395"},{"country":"AR","name":"Caraguatay","lat":"-26.60587","lng":"-54.78093"},{"country":"AR","name":"Capitán Solari","lat":"-26.80215","lng":"-59.56089"},{"country":"AR","name":"Capitán Sarmiento","lat":"-34.17238","lng":"-59.79048"},{"country":"AR","name":"Capioví","lat":"-26.92998","lng":"-55.06084"},{"country":"AR","name":"Capilla del Señor","lat":"-34.29207","lng":"-59.10179"},{"country":"AR","name":"Cañuelas","lat":"-35.05184","lng":"-58.76061"},{"country":"AR","name":"Candelaria","lat":"-27.4595","lng":"-55.74536"},{"country":"AR","name":"Campo Viera","lat":"-27.38333","lng":"-55.03333"},{"country":"AR","name":"Campo Ramón","lat":"-27.46108","lng":"-55.01901"},{"country":"AR","name":"Campo Grande","lat":"-27.2077","lng":"-54.97977"},{"country":"AR","name":"Campana","lat":"-34.16874","lng":"-58.95914"},{"country":"AR","name":"Buenos Aires","lat":"-34.61315","lng":"-58.37723"},{"country":"AR","name":"Brandsen","lat":"-35.16842","lng":"-58.23427"},{"country":"AR","name":"Bovril","lat":"-31.34311","lng":"-59.44512"},{"country":"AR","name":"Bonpland","lat":"-29.81708","lng":"-57.42974"},{"country":"AR","name":"Bonpland","lat":"-27.48218","lng":"-55.47756"},{"country":"AR","name":"Boedo","lat":"-34.63333","lng":"-58.41667"},{"country":"AR","name":"Berón de Astrada","lat":"-27.55067","lng":"-57.5346"},{"country":"AR","name":"Bernardo de Irigoyen","lat":"-26.2552","lng":"-53.64581"},{"country":"AR","name":"Berisso","lat":"-34.8735","lng":"-57.88303"},{"country":"AR","name":"Berazategui","lat":"-34.76531","lng":"-58.21278"},{"country":"AR","name":"Benito Juárez","lat":"-37.67188","lng":"-59.80653"},{"country":"AR","name":"Bella Vista","lat":"-28.50918","lng":"-59.04009"},{"country":"AR","name":"Belgrano","lat":"-34.5627","lng":"-58.45829"},{"country":"AR","name":"Belén de Escobar","lat":"-34.34833","lng":"-58.79265"},{"country":"AR","name":"Basail","lat":"-27.86667","lng":"-59.3"},{"country":"AR","name":"Barranqueras","lat":"-27.48132","lng":"-58.93925"},{"country":"AR","name":"Barracas","lat":"-34.64966","lng":"-58.38341"},{"country":"AR","name":"Baradero","lat":"-33.81105","lng":"-59.50807"},{"country":"AR","name":"Balcarce","lat":"-37.84616","lng":"-58.25522"},{"country":"AR","name":"Azul","lat":"-36.77698","lng":"-59.85854"},{"country":"AR","name":"Azara","lat":"-28.0616","lng":"-55.67797"},{"country":"AR","name":"Ayacucho","lat":"-37.15185","lng":"-58.48691"},{"country":"AR","name":"Avellaneda","lat":"-29.11761","lng":"-59.65834"},{"country":"AR","name":"Arroyo del Medio","lat":"-27.7","lng":"-55.41667"},{"country":"AR","name":"Aristóbulo del Valle","lat":"-27.09625","lng":"-54.89626"},{"country":"AR","name":"Apóstoles","lat":"-27.91421","lng":"-55.75355"},{"country":"AR","name":"Alvear","lat":"-29.09683","lng":"-56.55043"},{"country":"AR","name":"Almafuerte","lat":"-27.50518","lng":"-55.39497"},{"country":"AR","name":"Aldea San Antonio","lat":"-32.62376","lng":"-58.70333"},{"country":"AR","name":"Alba Posse","lat":"-27.56978","lng":"-54.68262"},{"country":"AR","name":"Guernica","lat":"-34.91722","lng":"-58.38694"},{"country":"AR","name":"Villa Basilio Nievas","lat":"-31.55","lng":"-68.73333"},{"country":"AR","name":"Zapala","lat":"-38.89916","lng":"-70.05442"},{"country":"AR","name":"Yuto","lat":"-23.64342","lng":"-64.47194"},{"country":"AR","name":"Yerba Buena","lat":"-26.81667","lng":"-65.31667"},{"country":"AR","name":"Yacimiento Río Turbio","lat":"-51.57321","lng":"-72.3508"},{"country":"AR","name":"Winifreda","lat":"-36.22643","lng":"-64.23388"},{"country":"AR","name":"Wenceslao Escalante","lat":"-33.17303","lng":"-62.77078"},{"country":"AR","name":"Vista Alegre","lat":"-38.75","lng":"-68.18333"},{"country":"AR","name":"Vinchina","lat":"-28.75964","lng":"-68.20692"},{"country":"AR","name":"Villa Valeria","lat":"-34.34093","lng":"-64.9203"},{"country":"AR","name":"Villa Urquiza","lat":"-31.64731","lng":"-60.3748"},{"country":"AR","name":"Villa Unión","lat":"-29.41347","lng":"-62.78822"},{"country":"AR","name":"Villa Unión","lat":"-29.31595","lng":"-68.22658"},{"country":"AR","name":"Villa Tulumba","lat":"-30.39552","lng":"-64.12241"},{"country":"AR","name":"Villa Trinidad","lat":"-30.21329","lng":"-61.87597"},{"country":"AR","name":"Villa Santa Rosa","lat":"-31.74434","lng":"-68.31411"},{"country":"AR","name":"Villa Rumipal","lat":"-32.1879","lng":"-64.48027"},{"country":"AR","name":"Villa Regina","lat":"-39.1","lng":"-67.06667"},{"country":"AR","name":"Villa Reducción","lat":"-33.20105","lng":"-63.86234"},{"country":"AR","name":"Villa Paula de Sarmiento","lat":"-31.4933","lng":"-68.53838"},{"country":"AR","name":"Villa Ojo de Agua","lat":"-29.50003","lng":"-63.69377"},{"country":"AR","name":"Villa Nueva","lat":"-32.89722","lng":"-68.78038"},{"country":"AR","name":"Villa Nueva","lat":"-32.43293","lng":"-63.24763"},{"country":"AR","name":"Villa Mugueta","lat":"-33.31129","lng":"-61.05515"},{"country":"AR","name":"Villa Media Agua","lat":"-31.98267","lng":"-68.42394"},{"country":"AR","name":"Villa María","lat":"-32.40751","lng":"-63.24016"},{"country":"AR","name":"Villa Las Rosas","lat":"-31.95021","lng":"-65.05354"},{"country":"AR","name":"Villa La Angostura","lat":"-40.76173","lng":"-71.64631"},{"country":"AR","name":"Villa Krause","lat":"-31.56667","lng":"-68.53333"},{"country":"AR","name":"Villa Huidobro","lat":"-34.83826","lng":"-64.58686"},{"country":"AR","name":"Villa Giardino","lat":"-31.03333","lng":"-64.48333"},{"country":"AR","name":"Villa General Roca","lat":"-32.66535","lng":"-66.45052"},{"country":"AR","name":"Villa General Mitre","lat":"-29.1431","lng":"-62.65248"},{"country":"AR","name":"Villa General Belgrano","lat":"-31.97542","lng":"-64.5559"},{"country":"AR","name":"Villa Dolores","lat":"-31.94585","lng":"-65.18958"},{"country":"AR","name":"Villa de Soto","lat":"-30.85523","lng":"-64.99947"},{"country":"AR","name":"Villa de María","lat":"-29.90195","lng":"-63.72289"},{"country":"AR","name":"Villa del Totoral","lat":"-30.81667","lng":"-63.71667"},{"country":"AR","name":"Villa del Salvador","lat":"-31.44155","lng":"-68.39745"},{"country":"AR","name":"Villa del Rosario","lat":"-31.5566","lng":"-63.53452"},{"country":"AR","name":"Villa del Dique","lat":"-32.17667","lng":"-64.45543"},{"country":"AR","name":"Villa Cura Brochero","lat":"-31.70578","lng":"-65.01796"},{"country":"AR","name":"Villa Constitución","lat":"-33.22778","lng":"-60.3297"},{"country":"AR","name":"Villa Concepción del Tío","lat":"-31.32259","lng":"-62.81354"},{"country":"AR","name":"Chañar Ladeado","lat":"-33.32524","lng":"-62.03831"},{"country":"AR","name":"Villa Castelli","lat":"-29.00295","lng":"-68.21277"},{"country":"AR","name":"Villa Carlos Paz","lat":"-31.42414","lng":"-64.49778"},{"country":"AR","name":"Villa Cañás","lat":"-34.00565","lng":"-61.60757"},{"country":"AR","name":"Villa Bustos","lat":"-29.28483","lng":"-67.03308"},{"country":"AR","name":"Villa Berthet","lat":"-27.29174","lng":"-60.41263"},{"country":"AR","name":"Villa Atamisqui","lat":"-28.49609","lng":"-63.81609"},{"country":"AR","name":"Villa Ascasubi","lat":"-32.16351","lng":"-63.89157"},{"country":"AR","name":"Villa Ángela","lat":"-27.57383","lng":"-60.71526"},{"country":"AR","name":"Villa Allende","lat":"-31.29458","lng":"-64.29538"},{"country":"AR","name":"Villa Aberastain","lat":"-31.65","lng":"-68.58333"},{"country":"AR","name":"Viedma","lat":"-40.81345","lng":"-62.99668"},{"country":"AR","name":"Vicuña Mackenna","lat":"-33.91965","lng":"-64.39215"},{"country":"AR","name":"Victorica","lat":"-36.21505","lng":"-65.43586"},{"country":"AR","name":"Victoria","lat":"-32.61841","lng":"-60.15478"},{"country":"AR","name":"Viamonte","lat":"-33.74647","lng":"-63.09764"},{"country":"AR","name":"Viale","lat":"-31.86782","lng":"-60.00722"},{"country":"AR","name":"Vera","lat":"-29.4593","lng":"-60.21261"},{"country":"AR","name":"Venado Tuerto","lat":"-33.74556","lng":"-61.96885"},